stop_id,stop_name,stop_lat,stop_lon,country
8014554,ENGEN,47.856347,8.772786,Germany
8014534,IMMENDINGEN,47.936007000000004,8.729536,Germany
8014529,DONAUESCHINGEN,47.947786,8.498919,Germany
8014521,VILLINGEN (SCHWARZW),48.058021999999994,8.465261,Germany
8014518,ST GEORGEN (SCHWARZW),48.123813,8.341955,Germany
8014513,TRIBERG,48.140004,8.236806,Germany
8014511,HORNBERG (SCHWARZW),48.211895,8.23294,Germany
8014502,HAUSACH,48.284924,8.181664999999999,Germany
8014501,HASLACH,48.28004,8.087975,Germany
8014499,BIBERACH (BADEN),48.338388,8.032762,Germany
8014309,OFFENBURG,48.476475,7.9467229999999995,Germany
8014288,RENCHEN (D),48.592659999999995,8.007138000000001,Germany
8014283,ACHERN,48.633990000000004,8.065324,Germany
8014281,BUHL (BADEN),48.696676000000004,8.129299000000001,Germany
8014277,BADEN-BADEN,48.790327000000005,8.190831,Germany
8014245,RASTATT,48.860483,8.215622999999999,Germany
8014228,KARLSRUHE HBF,48.993515,8.402181,Germany
8014289,APPENWEIER,48.541461,7.97319,Germany
8014241,MUGGENSTURM,48.876805,8.274293,Germany
8014240,MALSCH,48.889506,8.323585000000001,Germany
8014239,BRUCHHAUSEN (B ETTL),48.923992,8.373975,Germany
8014238,ETTLINGEN WEST,48.947182,8.387878,Germany
8014533,GEISINGEN,47.921341999999996,8.653951,Germany
8014555,WELSCHINGEN-NEUHAUSEN,47.83403,8.769216,Germany
8014556,MUHLHAUSEN (B ENGEN),47.813658000000004,8.804391,Germany
8014558,SINGEN (HOHENTWIEL),47.758438,8.840383000000001,Germany
8099985,SINGEN (HTW) INDUSTRIEGEBIET,47.766663,8.83334,Germany
8014570,BOHRINGEN-RICKELSHAUSEN,47.748732000000004,8.926651,Germany
8014571,RADOLFZELL,47.735873,8.968983999999999,Germany
8014581,ALLENSBACH,47.714464,9.068852,Germany
8014583,REICHENAU (BADEN),47.689346,9.125961,Germany
8099982,KONSTANZ-WOLLMATINGEN,47.692563,9.146842999999999,Germany
8080251,KONSTANZ-FURSTENBERG,47.677479,9.162847,Germany
8014584,KONSTANZ-PETERSHAUSEN,47.674092,9.173468,Germany
8014586,KONSTANZ,47.658753999999995,9.177311999999999,Germany
8014500,STEINACH (BADEN),48.298992,8.056469,Germany
8014497,GENGENBACH,48.404659,8.010192,Germany
8014580,MARKELFINGEN,47.739364,9.002772,Germany
8014582,HEGNE,47.706037,9.099572,Germany
8063797,OFFENBURG KREISSCHULZENTRUM,48.459784,7.955192,Germany
8063365,SINGEN (HTW)-LANDESGARTENSCHAU,47.760737,8.827046000000001,Germany
8029429,TUTTLINGEN,47.980579,8.798542,Germany
8029416,SPAICHINGEN,48.068987,8.740147,Germany
8029411,ROTTWEIL,48.165304,8.639294999999999,Germany
8029406,OBERNDORF (NECKAR),48.295669000000004,8.575514,Germany
8029403,SULZ (NECKAR),48.366485,8.636747999999999,Germany
8029399,HORB,48.441471,8.688982000000001,Germany
8029396,BONDORF (B HERRENBERG),48.523552,8.827662,Germany
8029395,GAUFELDEN,48.559661,8.850308,Germany
8029394,HERRENBERG,48.593990999999995,8.862662,Germany
8029383,BOBLINGEN,48.687758,9.004128,Germany
8029034,STUTTGART HBF,48.784084,9.181635,Germany
8500090,BASEL BAD BF,47.567308000000004,7.60692,Switzerland
8014428,WEIL AM RHEIN,47.593965999999995,7.608416,Germany
8014413,MULLHEIM (BADEN),47.809743,7.599332,Germany
8014410,HEITERSHEIM,47.879859,7.646194,Germany
8014408,BAD KROZINGEN,47.919721,7.6976320000000005,Germany
8014350,FREIBURG (BREISGAU) HBF,47.997696999999995,7.84117,Germany
8014335,DENZLINGEN,48.068625,7.881434,Germany
8014331,EMMENDINGEN,48.119454,7.847511,Germany
8014328,RIEGEL-MALTERDINGEN,48.151969,7.77085,Germany
8014327,KENZINGEN,48.194451,7.764094,Germany
8014326,HERBOLZHEIM (BREISGAU),48.223865999999994,7.767638000000001,Germany
8014319,LAHR (SCHWARZW),48.340436,7.834734,Germany
8014318,FRIESENHEIM (BADEN),48.381589,7.862947999999999,Germany
8014324,ORSCHWEIER,48.274192,7.790280999999999,Germany
8014325,RINGSHEIM,48.248726,7.7730369999999995,Germany
8014329,KONDRINGEN,48.137458,7.802925,Germany
8014330,TENINGEN-MUNDINGEN,48.128777,7.824408,Germany
8014332,KOLLMARSREUTE,48.098271000000004,7.887074,Germany
8014347,GUNDELFINGEN (BREISGAU),48.044025,7.874185000000001,Germany
8014348,FREIBURG (D) ZAHRINGEN,48.024363,7.863734,Germany
8014349,FREIBURG (D) HERDERN,48.008237,7.850973,Germany
8014406,SCHALLSTADT,47.955946999999995,7.753888000000001,Germany
8014411,BUGGINGEN,47.855253999999995,7.628161,Germany
8014417,SCHLIENGEN,47.761598,7.568936999999999,Germany
8014418,BAD BELLINGEN,47.730804,7.557600999999999,Germany
8014422,EFRINGEN-KIRCHEN,47.655619,7.563917999999999,Germany
8014423,EIMELDINGEN,47.627947999999996,7.5956,Germany
8014424,HALTINGEN,47.612837,7.611683,Germany
8014404,FREIBURG (D) ST. GEORGEN,47.975496,7.803006,Germany
8014405,EBRINGEN,47.960359999999994,7.76818,Germany
8014407,NORSINGEN,47.93925,7.726196000000001,Germany
8014416,AUGGEN,47.789949,7.586788,Germany
8014419,RHEINWEILER,47.709532,7.531642999999999,Germany
8014420,KLEINKEMS,47.686129,7.524661999999999,Germany
8014421,ISTEIN,47.660889000000005,7.542942999999999,Germany
8029069,SINDELFINGEN(WURTT),48.703891,8.999075,Germany
8029454,MAICHINGEN,48.722331,8.969921000000001,Germany
8097911,MAICHINGEN NORD,48.72736,8.979257,Germany
8029453,MAGSTADT,48.736106,8.965454,Germany
8091764,RENNINGEN-SUD,48.762674,8.932027,Germany
8029446,RENNINGEN,48.775121,8.93235,Germany
8029445,RUTESHEIM,48.790017,8.95955,Germany
8029444,LEONBERG,48.799646,9.003853,Germany
8029443,HOFINGEN,48.814986,9.025314999999999,Germany
8029442,DITZINGEN,48.823611,9.06705,Germany
8029384,WEILIMDORF,48.82208,9.094327999999999,Germany
8029441,KORNTAL,48.826415999999995,9.121167999999999,Germany
8029440,NEUWIRTSHAUS PORSCHEPLATZ,48.833824,9.152505,Germany
8029038,STUTTGART-ZUFFENHAUSEN,48.829415000000004,9.166739,Germany
8029031,STUTTGART-FEUERBACH,48.813673,9.169382,Germany
8029033,STUTTGART NORD,48.803769,9.188025999999999,Germany
8029376,STUTTGART HBF (TIEF),48.782999,9.179808,Germany
8029375,STUTTGART STADTMITTE,48.776229,9.172925,Germany
8029374,STUTTGART FEUERSEE,48.772768,9.166273,Germany
8029373,STUTTGART-SCHWABSTRASSE,48.770255,9.156959,Germany
8029041,STUTTGART-BAD CANNSTATT,48.801377,9.217531,Germany
8029377,STUTTGART-NECKARPARK,48.792173,9.241595,Germany
8029045,STUTTGART-UNTERTURKHEIM,48.779751,9.250569,Germany
8029052,STUTTGART-OBERTURKHEIM,48.762013,9.267889,Germany
8029053,ESSLINGEN-METTINGEN,48.747083,9.275830000000001,Germany
8029055,ESSLINGEN (NECKAR),48.73881,9.30008,Germany
8029017,LUDWIGSBURG PBF,48.891861999999996,9.18542,Germany
8029027,STUTTGART-ZAZENHAUSEN,48.836034000000005,9.199539,Germany
8029028,STUTTGART-MUNSTER,48.820724,9.215860000000001,Germany
8029029,STUTTGART EBITZWEG,48.803938,9.231701,Germany
8029060,PLOCHINGEN,48.71308,9.410810000000001,Germany
8029058,ALTBACH,48.720393,9.382384,Germany
8029057,ESSLINGEN-ZELL,48.724328,9.359389,Germany
8029056,OBERESSLINGEN,48.729876000000004,9.327266999999999,Germany
8029393,NUFRINGEN,48.620278000000006,8.889796,Germany
8029392,GARTRINGEN,48.641121999999996,8.909113,Germany
8029391,EHNINGEN(B BOBLINGEN),48.662682000000004,8.94426,Germany
8029382,HULB,48.679266999999996,8.982644,Germany
8029569,GOLDBERG(WURTT),48.696909999999995,9.020430000000001,Germany
8029381,STUTTGART-ROHR,48.717902,9.108328,Germany
8029367,STUTTGART-VAIHINGEN,48.726279,9.113226,Germany
8029044,STUTTGART-OSTERFELD,48.737651,9.116774000000001,Germany
8029723,STUTTGART-UNIVERSITAT,48.745837,9.105398,Germany
8029284,WERNAU (NECKAR),48.694247,9.413898,Germany
8029285,WENDLINGEN (NECKAR),48.672961,9.373011,Germany
8029286,KIRCHHEIM(TECK)-OTLINGEN,48.657764,9.416291000000001,Germany
8029287,KIRCHHEIM (TECK),48.644258,9.443927,Germany
8064619,FILDERSTADT (D),48.676493,9.217709,Germany
8079107,STUTTGART FLUGHAFEN/MESSE,48.690647999999996,9.19263,Germany
8029724,ECHTERDINGEN,48.692152,9.169164,Germany
8029369,LEINFELDEN,48.696506,9.142866,Germany
8029789,OBERAICHEN,48.705193,9.127335,Germany
8029512,STUTTGART NURNBERGER STR.,48.806422999999995,9.234858000000001,Germany
8029513,STUTTGART-SOMMERRAIN,48.81527,9.248327,Germany
8029514,FELLBACH,48.820049,9.269978,Germany
8029515,WAIBLINGEN,48.826124,9.299882,Germany
8029516,ROMMELSHAUSEN,48.815540000000006,9.319344000000001,Germany
8029518,STETTEN-BEINSTEIN,48.811924,9.35245,Germany
8029519,ENDERSBACH,48.813153,9.370228,Germany
8029520,BEUTELSBACH,48.810293,9.386028999999999,Germany
8029521,GRUNBACH,48.810359999999996,9.420029,Germany
8029522,GERADSTETTEN,48.805203000000006,9.439753,Germany
8029523,WINTERBACH(B SCHORNDORF),48.798432,9.480994,Germany
8029524,WEILER(REMS),48.800301,9.501991,Germany
8029525,SCHORNDORF,48.80715,9.52631,Germany
8029572,NEUSTADT-HOHENACKER,48.859312,9.324715,Germany
8029573,SCHWAIKHEIM,48.86834,9.354942999999999,Germany
8029574,WINNENDEN,48.879583000000004,9.39229,Germany
8029575,NELLMERSBACH,48.903368,9.415401,Germany
8029576,MAUBACH,48.926132,9.419989999999999,Germany
8029577,BACKNANG,48.942676,9.425989,Germany
8029026,KORNWESTHEIM PBF,48.862219,9.179964,Germany
8029590,FAVORITEPARK,48.909209000000004,9.180233,Germany
8029591,FREIBERG (NECKAR),48.930107,9.197796,Germany
8029592,BENNINGEN (NECKAR),48.943614000000004,9.244504,Germany
8029593,MARBACH (NECKAR),48.943684999999995,9.264452,Germany
8029594,ERDMANNHAUSEN,48.948229,9.299405,Germany
8029595,KIRCHBERG (MURR),48.939161,9.329056,Germany
8029596,BURGSTALL(MURR),48.928647,9.369932,Germany
8029016,ASPERG,48.907359,9.147797,Germany
8029015,TAMM(WURTT),48.921605,9.125828,Germany
8029014,BIETIGHEIM-BISSINGEN,48.947933,9.137557000000001,Germany
8029447,MALMSHEIM,48.771755,8.904505,Germany
8029448,WEIL DER STADT,48.755483,8.872806,Germany
8039279,FREIBURG (D) KLINIKUM,48.005562,7.842755,Germany
8014354,FREIBURG (D) WEST,48.0288,7.810860000000001,Germany
8014357,HUGSTETTEN,48.048246999999996,7.783929,Germany
8014358,GOTTENHEIM,48.051653,7.727832,Germany
8047813,BOTZINGEN,48.070174,7.721616,Germany
8047814,BOTZINGEN MUHLE,48.075552,7.727931,Germany
8047812,EICHSTETTEN,48.092901,7.7480210000000005,Germany
8047811,NIMBURG(BADEN),48.105740000000004,7.760274000000001,Germany
8047842,BAHLINGEN-RIEDLEN,48.118019,7.747775999999999,Germany
8047810,BAHLINGEN AM KAISERSTUHL,48.124494,7.741516000000001,Germany
8047801,RIEGEL AM KAISERSTUHL ORT,48.154055,7.749942999999999,Germany
8047802,ENDINGEN (BADEN),48.14425,7.701917999999999,Germany
8014361,BREISACH,48.026918,7.58935,Germany
8014360,IHRINGEN (D),48.040409999999994,7.648777000000001,Germany
8014359,WASENWEILER,48.046587,7.686813000000001,Germany
8014703,FREIBURG (D) MESSE/UNIVERSITAT,48.012918,7.832667999999999,Germany
8014364,FREIBURG (D) WIEHRE,47.982413,7.854127,Germany
8014365,FREIBURG (D) LITTENWEILER,47.981671999999996,7.895133,Germany
8014367,KIRCHZARTEN,47.967936,7.959132,Germany
8014368,HIMMELREICH,47.958616,7.991356,Germany
8014372,HINTERZARTEN,47.906278,8.106033,Germany
8014373,TITISEE,47.903402,8.155069000000001,Germany
8014384,NEUSTADT (SCHWARZW),47.910198,8.210883,Germany
8014380,SEEBRUGG,47.803515999999995,8.191115,Germany
8014379,SCHLUCHSEE,47.816868,8.177126,Germany
8014378,AHA,47.833224,8.134349,Germany
8014377,ALTGLASHUTTEN-FALKAU,47.859392,8.114113,Germany
8014376,FELDBERG-BARENTAL,47.871444,8.098294000000001,Germany
8014393,ROTENBACH (BADEN),47.89283,8.290057000000001,Germany
8014394,LOFFINGEN,47.883434,8.3418,Germany
8014396,BACHHEIM,47.862072,8.399399,Germany
8014397,UNADINGEN,47.881166,8.397886,Germany
8014398,DOGGINGEN,47.893654,8.441107,Germany
8014400,HUFINGEN-MITTE,47.928963,8.490065,Germany
8071989,DONAUESCHINGEN ALLMENDSHOFEN,47.940577000000005,8.501819,Germany
8080295,DONAUESCHINGEN MITTE/SIEDL.,47.952541,8.488955,Germany
8014526,BRIGACHTAL-KLENGEN,48.007366,8.465779,Germany
8071993,BRIGACHTAL KIRCHDORF,48.014343,8.467807,Germany
8080297,VILLINGEN-SCH. MARBACH WEST,48.031286,8.469154,Germany
8071992,DONAUESCHINGEN GRUNINGEN,47.983052,8.471824,Germany
8080296,DONAUESCHINGEN-AUFEN,47.963356,8.47562,Germany
8030446,NEUENBURG(BADEN),47.811483,7.562755999999999,Germany
8014474,WALDSHUT,47.621368,8.219526,Germany
8014181,DOGERN,47.608887,8.167356,Germany
8014471,ALBBRUCK,47.592234999999995,8.131774,Germany
8014469,LAUFENBURG (BADEN) OST,47.566163,8.073691,Germany
8014468,LAUFENBURG (BADEN),47.563408,8.058311999999999,Germany
8014467,MURG (BADEN),47.553452,8.018725,Germany
8014466,BAD SACKINGEN,47.555857,7.9486300000000005,Germany
8014465,WEHR-BRENNET,47.58092,7.910525,Germany
8014464,SCHWORSTADT,47.591019,7.870328,Germany
8014463,BEUGGEN,47.581906,7.810915,Germany
8014462,RHEINFELDEN (BADEN),47.556923,7.784209,Germany
8014460,HERTEN (BADEN),47.549507,7.739663,Germany
8014459,WYHLEN,47.546328,7.690917999999999,Germany
8014458,GRENZACH,47.5509,7.6595059999999995,Germany
8014479,LAUCHRINGEN,47.629088,8.322192999999999,Germany
8014478,TIENGEN (HOCHRHEIN),47.635471,8.272003,Germany
8085022,LAUCHRINGEN WEST,47.632775,8.308102,Germany
8080100,WUTOSCHINGEN,47.662088,8.363653999999999,Germany
8088575,EGGINGEN,47.693731,8.396653,Germany
8014546,STUHLINGEN,47.74703,8.451367999999999,Germany
8014481,ERZINGEN (BADEN),47.659541,8.430123,Germany
8014480,GRIESSEN (BADEN),47.628432000000004,8.396003,Germany
8029678,SCHWABISCH HALL-HESSENTAL,49.096732,9.767373,Germany
8029587,GAILDORF WEST,49.003822,9.753892,Germany
8029585,FICHTENBERG,48.987346,9.700763,Germany
8029584,FORNSBACH (D),48.975445,9.642498,Germany
8029583,MURRHARDT,48.982757,9.57777,Germany
8029581,SULZBACH (MURR),48.999461,9.500409,Germany
8029580,OPPENWEILER (WURTT),48.981518,9.462785,Germany
8029683,ECKARTSHAUSEN-ILSHOFEN,49.152317,9.936645,Germany
8029685,CRAILSHEIM,49.137871999999994,10.064326,Germany
8014545,WEIZEN,47.768832,8.476514,Germany
8029398,EUTINGEN IM GAU,48.479952000000004,8.782236,Germany
8029397,ERGENZINGEN,48.489534,8.809857000000001,Germany
8034472,EUTINGEN NORD,48.4847,8.7531,Germany
8029486,HOCHDORF (B HORB),48.482485,8.724052,Germany
8033764,HORB-ALTHEIM HEILIGENFELD,48.467796,8.660150999999999,Germany
8029488,BITTELBRONN,48.444404,8.589439,Germany
8029489,SCHOPFLOCH (B FREUDENSTADT),48.453711,8.547754,Germany
8029490,DORNSTETTEN,48.469635,8.503214,Germany
8069226,DORNSTETTEN-AACH,48.4733,8.48291,Germany
8092895,GRUNTAL-WITTLENSWEILER,48.475398999999996,8.460747,Germany
8029492,FREUDENSTADT HBF,48.460322,8.428803,Germany
8014492,GOTTMADINGEN,47.737401,8.77543,Germany
8014491,BIETINGEN,47.744017,8.738914999999999,Germany
8014490,THAYNGEN,47.745502,8.7043,Switzerland
8014487,HERBLINGEN,47.717003000000005,8.664127,Switzerland
8029293,OBERLENNINGEN,48.554384999999996,9.470774,Germany
8029292,UNTERLENNINGEN (D),48.565255,9.460555000000001,Germany
8029291,BRUCKEN,48.573918,9.453061,Germany
8029290,OWEN(TECK),48.586996,9.44776,Germany
8029289,DETTINGEN(TECK),48.616409000000004,9.454877999999999,Germany
8029288,KIRCHHEIM(TECK) SUD,48.640260999999995,9.451788,Germany
8718284,BANTZENHEIM,47.817178000000006,7.537418,France
8718206,MULHOUSE,47.741953,7.343048,France
8508350,BRIENZ BRB,46.755214,8.038089,Switzerland
8508351,PLANALP,46.772372999999995,8.019844,Switzerland
8508352,BRIENZER ROTHORN,46.787399,8.038446,Switzerland
8500010,BASEL SBB,47.547412,7.589562,Switzerland
175,HAUENSTEIN-BASISTUNNEL,47.401134000000006,7.904317999999999,Switzerland
8503000,ZURICH HB,47.378177,8.540212,Switzerland
176,ZIMMERBERG-BASISTUNNEL,47.351679,8.521961,Switzerland
8509411,SARGANS,47.045359999999995,9.445399,Switzerland
8509002,LANDQUART,46.96744,9.554045,Switzerland
8509000,CHUR,46.853084,9.528936999999999,Switzerland
8507492,INTERLAKEN OST,46.6905,7.8689990000000005,Switzerland
8507493,INTERLAKEN WEST,46.682628,7.851453,Switzerland
8507483,SPIEZ,46.686396,7.680103,Switzerland
8507100,THUN,46.754853000000004,7.629606,Switzerland
8507000,BERN,46.948832,7.439131,Switzerland
132,BAHN-2000-STRECKE,47.196374,7.689360000000001,Switzerland
8500218,OLTEN,47.351935,7.907699000000001,Switzerland
8500023,LIESTAL,47.484460999999996,7.731367,Switzerland
8301003,DOMODOSSOLA (I),46.115293,8.296239,Italy
142,SIMPLONTUNNEL,46.276342,8.091198,Switzerland
8501609,BRIG,46.319423,7.988094,Switzerland
8501506,SION,46.227553,7.359196000000001,Switzerland
8501300,MONTREUX,46.435884,6.9104399999999995,Switzerland
8501120,LAUSANNE,46.516791999999995,6.629092,Switzerland
8501008,GENEVE,46.210213,6.142452,Switzerland
8301700,MILANO CENTRALE,45.486385,9.204714,Italy
8302593,VENEZIA S. LUCIA,45.441393,12.320459,Italy
8501605,VISP,46.294028999999995,7.8814649999999995,Switzerland
8501500,MARTIGNY,46.105831,7.079124,Switzerland
8501403,ST-MAURICE,46.216369,7.002043,Switzerland
8501400,AIGLE,46.316855,6.9636830000000005,Switzerland
8501200,VEVEY,46.463002,6.843446000000001,Switzerland
8501037,MORGES,46.511101000000004,6.49397,Switzerland
8501030,NYON,46.384419,6.235966,Switzerland
8501026,GENEVE-AEROPORT,46.232539,6.111985,Switzerland
135,LOTSCHBERG-BASISTUNNEL,46.356888,7.773846000000001,Switzerland
8102336,BREGENZ,47.503003,9.739627,Austria
8506314,ST. MARGRETHEN SG,47.453216,9.638261,Switzerland
8506302,ST. GALLEN,47.423179,9.369897,Switzerland
8506000,WINTERTHUR,47.500334,8.72382,Switzerland
8503016,ZURICH FLUGHAFEN,47.450386,8.562401,Switzerland
8505000,LUZERN,47.050178,8.310183,Switzerland
137,ROTSEE,47.074529999999996,8.320797,Switzerland
8505004,ARTH-GOLDAU,47.049045,8.549446000000001,Switzerland
174,GOTTHARD-BASISTUNNEL,46.680772999999995,8.765599,Switzerland
8505213,BELLINZONA,46.195432000000004,9.029519,Switzerland
8505300,LUGANO,46.005501,8.946995,Switzerland
8505307,CHIASSO,45.832167999999996,9.031449,Switzerland
8301307,COMO S. GIOVANNI,45.808971,9.072714,Italy
8301322,MONZA,45.574824,9.273683,Italy
8101236,FELDKIRCH,47.240978000000005,9.604102000000001,Austria
8509404,BUCHS SG,47.168412,9.478636999999999,Switzerland
8503424,SCHAFFHAUSEN,47.698282,8.632756,Switzerland
8001093,HAMBURG-ALTONA,53.55269499999999,9.935175,Germany
8502204,ZUG,47.173707,8.515049000000001,Switzerland
8500309,BRUGG AG,47.48086,8.208844000000001,Switzerland
8504300,BIEL/BIENNE,47.132898,7.242911,Switzerland
8504221,NEUCHATEL,46.996727,6.935701,Switzerland
8504200,YVERDON-LES-BAINS,46.781545,6.640944,Switzerland
8500202,GRENCHEN SUD,47.188775,7.398178999999999,Switzerland
8500207,SOLOTHURN,47.204193,7.542689,Switzerland
8502113,AARAU,47.39136,8.051274000000001,Switzerland
8500212,OENSINGEN,47.285035,7.70987,Switzerland
8502119,LENZBURG,47.3912,8.170392,Switzerland
8509004,BAD RAGAZ,47.01031,9.505224,Switzerland
8509003,MAIENFELD,47.003840999999994,9.529216,Switzerland
8505112,FLUELEN,46.90173,8.624302,Switzerland
8505305,MENDRISIO,45.869109,8.978611,Switzerland
8503006,ZURICH OERLIKON,47.41153,8.544139,Switzerland
8506206,WIL SG,47.462413,9.040992999999999,Switzerland
8506208,UZWIL,47.436444,9.130991,Switzerland
8506209,FLAWIL,47.415189,9.189785,Switzerland
8506210,GOSSAU SG,47.411832000000004,9.253051,Switzerland
8504100,FRIBOURG/FREIBURG,46.803148,7.151047,Switzerland
8506100,FRAUENFELD,47.558163,8.896559,Switzerland
8506105,WEINFELDEN,47.566224,9.106368,Switzerland
8506109,AMRISWIL,47.55045,9.302227,Switzerland
8506121,ROMANSHORN,47.565523,9.379371,Switzerland
8507478,FRUTIGEN,46.588908,7.651418,Switzerland
8504410,ZOLLIKOFEN,47.001826,7.462911,Switzerland
8506217,SULGEN,47.538804,9.183694000000001,Switzerland
8505209,BIASCA,46.351984,8.974179,Switzerland
8507006,MUNSINGEN,46.873354,7.559442,Switzerland
8507002,OSTERMUNDIGEN,46.956802,7.481497,Switzerland
8507003,GUMLIGEN,46.934321999999995,7.505505,Switzerland
8500026,SISSACH,47.462754,7.8120270000000005,Switzerland
136,LOTSCHBERG-BERGSTRECKE,46.433756,7.7172149999999995,Switzerland
8507475,KANDERSTEG,46.495397,7.671411999999999,Switzerland
8507474,GOPPENSTEIN,46.367707,7.754921,Switzerland
8503504,BADEN,47.476424,8.307709,Switzerland
8500305,FRICK,47.507349,8.013092,Switzerland
8500320,STEIN-SACKINGEN,47.541608000000004,7.948842999999999,Switzerland
8500301,RHEINFELDEN,47.551214,7.792169,Switzerland
8503503,TURGI,47.491757,8.253459,Switzerland
8505400,LOCARNO,46.17242,8.801361,Switzerland
8500159,GRENCHEN NORD,47.191697999999995,7.389618,Switzerland
8500105,MOUTIER,47.280673,7.381044,Switzerland
8500109,DELEMONT,47.362013,7.3500630000000005,Switzerland
8501118,RENENS VD,46.537042,6.578935,Switzerland
8500113,LAUFEN,47.419346000000004,7.502636,Switzerland
8501402,BEX,46.251465,7.0006699999999995,Switzerland
8501509,SIERRE/SIDERS,46.292122,7.532825999999999,Switzerland
8501601,LEUK,46.31158,7.644936,Switzerland
8501031,GLAND,46.419986,6.26914,Switzerland
8501576,SEMBRANCHER,46.076902000000004,7.145751,Switzerland
8501579,LE CHABLE VS,46.078888,7.215089,Switzerland
8500302,MOHLIN,47.561858,7.833863000000001,Switzerland
8500021,PRATTELN,47.522669,7.690817,Switzerland
8500020,MUTTENZ,47.533590999999994,7.647894,Switzerland
8501303,VILLENEUVE VD,46.398371000000004,6.927003,Switzerland
8503508,DIETIKON,47.405784000000004,8.404988000000001,Switzerland
8503001,ZURICH ALTSTETTEN,47.391483,8.488961999999999,Switzerland
8506131,KREUZLINGEN,47.652553000000005,9.169080000000001,Switzerland
8503202,THALWIL,47.295981,8.564769,Switzerland
8502206,BAAR,47.195364,8.523272,Switzerland
8502202,ROTKREUZ,47.141764,8.430495,Switzerland
8502200,EBIKON,47.084263,8.342358,Switzerland
8502201,GISIKON-ROOT,47.121328000000005,8.394788,Switzerland
8502007,SURSEE,47.170795,8.097893,Switzerland
8502001,ZOFINGEN,47.288053000000005,7.943117,Switzerland
8502021,EMMENBRUCKE,47.070602,8.282565,Switzerland
8508100,LANGENTHAL,47.217303,7.784714999999999,Switzerland
8508008,HERZOGENBUCHSEE,47.188086,7.700958,Switzerland
8508005,BURGDORF,47.060701,7.621694000000001,Switzerland
8508006,WYNIGEN,47.105175,7.663506,Switzerland
8500027,GELTERKINDEN,47.465894,7.8476669999999995,Switzerland
8504103,FLAMATT,46.888490999999995,7.31957,Switzerland
8504023,ROMONT FR,46.693508,6.911811,Switzerland
8504014,PALEZIEUX,46.542764,6.837875,Switzerland
8504101,DUDINGEN,46.851052,7.189753,Switzerland
8502208,HORGEN OBERDORF,47.25875,8.589815,Switzerland
8503010,ZURICH ENGE,47.364098999999996,8.530821000000001,Switzerland
8502203,CHAM,47.178244,8.457504,Switzerland
8505306,BALERNA,45.846745,9.005035000000001,Switzerland
8505214,GIUBIASCO,46.173813,9.0036,Switzerland
8505201,AIROLO,46.527526,8.608619000000001,Switzerland
140,GOTTHARD-PANORAMASTRECKE,46.604329,8.591156,Switzerland
8505119,GOSCHENEN,46.665815,8.588808,Switzerland
8506311,RORSCHACH,47.478002000000004,9.505141,Switzerland
8506317,HEERBRUGG,47.410393,9.627248,Switzerland
8506319,ALTSTATTEN SG,47.374235,9.556519,Switzerland
8509400,OBERRIET SG,47.323483,9.571375999999999,Switzerland
8509414,WALENSTADT,47.119873999999996,9.312981,Switzerland
8503225,ZIEGELBRUCKE,47.136156,9.060052,Switzerland
8503221,SIEBNEN-WANGEN,47.182671,8.900714,Switzerland
8503209,PFAFFIKON SZ,47.202996999999996,8.77813,Switzerland
8503206,WADENSWIL,47.229307,8.675216,Switzerland
8509413,FLUMS,47.096616999999995,9.347928999999999,Switzerland
8503220,LACHEN SZ,47.190068,8.852715,Switzerland
8501035,ALLAMAN,46.475753999999995,6.399697,Switzerland
8501023,COPPET,46.317394,6.1878269999999995,Switzerland
8501022,VERSOIX,46.279727,6.165741000000001,Switzerland
8504304,SONCEBOZ-SOMBEVAL,47.195147999999996,7.168763,Switzerland
8504307,COURTELARY,47.175632,7.068803,Switzerland
8504310,ST-IMIER,47.151711,7.0012229999999995,Switzerland
8504314,LA CHAUX-DE-FONDS,47.098374,6.825982000000001,Switzerland
8504305,CORGEMONT,47.193399,7.144661,Switzerland
8504306,CORTEBERT,47.189337,7.107309,Switzerland
8504308,CORMORET,47.172947,7.054123,Switzerland
8504309,VILLERET,47.160204,7.019675,Switzerland
8504311,SONVILIER,47.141342,6.969352000000001,Switzerland
8504312,RENAN BE,47.12572,6.925382000000001,Switzerland
8504234,CHAMBRELIEN,46.967109,6.812256,Switzerland
8504236,LES GENEVEYS-SUR-COFFRANE,47.015096,6.853217,Switzerland
8504237,LES HAUTS-GENEVEYS,47.047177000000005,6.874673,Switzerland
8500128,BONCOURT,47.492632,7.016551,Switzerland
8500144,BUIX,47.479333000000004,7.029967,Switzerland
8500143,GRANDGOURT,47.46992,7.048107000000001,Switzerland
8500127,COURTEMAICHE,47.455869,7.05538,Switzerland
8500141,COURCHAVON,47.439774,7.057645,Switzerland
8500126,PORRENTRUY,47.420916,7.080077,Switzerland
8502110,DULLIKEN,47.354276,7.946501,Switzerland
8502111,DANIKEN SO,47.356390000000005,7.978771000000001,Switzerland
8502112,SCHONENWERD SO,47.371424,8.000158,Switzerland
8502213,WOHLEN AG,47.348464,8.269792,Switzerland
8502215,MURI AG,47.276666,8.339821,Switzerland
8502012,ROTHENBURG DORF,47.09091,8.273191,Switzerland
8502020,ROTHENBURG,47.088190000000004,8.249179,Switzerland
8502009,SEMPACH-NEUENKIRCH,47.116053,8.195978,Switzerland
8502008,NOTTWIL,47.138812,8.1386,Switzerland
8502011,OBERKIRCH LU,47.155238,8.114234,Switzerland
8502010,ST. ERHARD-KNUTWIL,47.180082,8.074582000000001,Switzerland
8502006,WAUWIL,47.183859000000005,8.019019,Switzerland
8502005,NEBIKON,47.192381,7.977449000000001,Switzerland
8502004,DAGMERSELLEN,47.217558000000004,7.979025999999999,Switzerland
8502003,REIDEN,47.241468,7.968774000000001,Switzerland
8502002,BRITTNAU-WIKON,47.262665999999996,7.957039999999999,Switzerland
8502028,EMMENBRUCKE GERSAG,47.078314,8.276819999999999,Switzerland
8502000,AARBURG-OFTRINGEN,47.320268,7.908222,Switzerland
8503505,WETTINGEN,47.459638,8.316006,Switzerland
8502115,WILDEGG,47.415275,8.16302,Switzerland
8503511,NEUENHOF,47.450664,8.331255,Switzerland
8503506,KILLWANGEN-SPREITENBACH,47.433329,8.354214,Switzerland
8503512,GLANZENBERG,47.398879,8.420441,Switzerland
8503509,SCHLIEREN,47.399176000000004,8.447244,Switzerland
8503400,BULACH,47.52395,8.536209,Switzerland
8503404,RAFZ,47.603797,8.543451,Switzerland
8503423,NEUHAUSEN,47.683133000000005,8.624935,Switzerland
8503421,JESTETTEN,47.654402000000005,8.573299,Germany
8500329,KOBLENZ,47.600338,8.227049000000001,Switzerland
8011068,FRANKFURT (MAIN) HBF,50.107145,8.663789,Germany
8501203,CLARENS,46.442738,6.89578,Switzerland
8501201,LA TOUR-DE-PEILZ,46.455453000000006,6.859532000000001,Switzerland
8501304,ROCHE VD,46.358696,6.927052000000001,Switzerland
8501202,BURIER,46.447886,6.877122,Switzerland
8501124,CULLY,46.488562,6.727150999999999,Switzerland
8504315,LE CRET-DU-LOCLE,47.077233,6.784581,Switzerland
8504316,LE LOCLE,47.057860999999995,6.746153,Switzerland
8504231,LES DEURRES,46.985525,6.899147999999999,Switzerland
8504232,CORCELLES-PESEUX,46.983351,6.883813000000001,Switzerland
8504303,LA HEUTTE,47.189492,7.225395,Switzerland
8504302,REUCHENETTE-PERY,47.189739,7.247024000000001,Switzerland
8504301,FRINVILLIER-TAUBENLOCH,47.169458,7.257528999999999,Switzerland
8504220,NEUCHATEL-SERRIERES,46.983962,6.903363000000001,Switzerland
8504219,AUVERNIER,46.979642,6.877707000000001,Switzerland
8504209,COLOMBIER NE,46.967652,6.84887,Switzerland
8504208,BOUDRY,46.959457,6.835047,Switzerland
8504206,BEVAIX,46.929696,6.81168,Switzerland
8504205,GORGIER-ST-AUBIN,46.899076,6.781025,Switzerland
8504204,VAUMARCUS,46.877643,6.757579,Switzerland
8504203,CONCISE,46.850882,6.7231570000000005,Switzerland
8504201,GRANDSON,46.806283,6.6419440000000005,Switzerland
8500102,MALLERAY-BEVILARD,47.238714,7.275946,Switzerland
8500135,PONTENET,47.238848,7.254159,Switzerland
8500101,RECONVILIER,47.235238,7.227417,Switzerland
8500100,TAVANNES,47.219845,7.201645,Switzerland
8500103,SORVILIER,47.239247,7.305772999999999,Switzerland
8500104,COURT,47.240601,7.342109,Switzerland
8504222,ST-BLAISE CFF,47.014576,6.9821100000000005,Switzerland
8504223,CORNAUX NE,47.038571999999995,7.023366,Switzerland
8504224,CRESSIER NE,47.051953000000005,7.039532,Switzerland
8504225,LE LANDERON,47.056636,7.0663350000000005,Switzerland
8504226,LA NEUVEVILLE,47.062833000000005,7.095232000000001,Switzerland
8504227,LIGERZ,47.083769000000004,7.135157,Switzerland
8504228,TWANN,47.093664000000004,7.156498,Switzerland
8504229,TUSCHERZ,47.115008,7.197317999999999,Switzerland
8500206,SOLOTHURN WEST,47.206717,7.531949000000001,Switzerland
8500261,LANGENDORF,47.217861,7.513585000000001,Switzerland
8500262,LOMMISWIL,47.218565000000005,7.469517999999999,Switzerland
8500263,IM HOLZ,47.230921,7.474794,Switzerland
8500264,OBERDORF SO,47.235883,7.493696000000001,Switzerland
8500265,GANSBRUNNEN,47.265652,7.4649160000000006,Switzerland
8500260,CREMINES-ZOO,47.272420000000004,7.456784,Switzerland
8500266,CORCELLES BE,47.285665,7.450463,Switzerland
8500267,CREMINES,47.285608,7.435477000000001,Switzerland
8500268,GRANDVAL,47.283589,7.421882000000001,Switzerland
8518963,SOLOTHURN ALLMEND,47.208886,7.521425999999999,Switzerland
8500205,BELLACH,47.208878999999996,7.507825,Switzerland
8500204,SELZACH,47.200624,7.456633999999999,Switzerland
8500203,BETTLACH,47.194949,7.428373,Switzerland
8500201,LENGNAU BE,47.179431,7.366553,Switzerland
8500200,PIETERLEN,47.171440999999994,7.340194,Switzerland
8518771,BIEL/BIENNE BOZINGENFELD/CHAMP,47.158382,7.294648,Switzerland
8504419,BIEL METT,47.144725,7.272487,Switzerland
8500217,OLTEN HAMMER,47.348555,7.897724,Switzerland
8500216,WANGEN BEI OLTEN,47.341401,7.868361,Switzerland
8500215,HAGENDORF,47.330268,7.843816,Switzerland
8500214,EGERKINGEN,47.314865000000005,7.798966,Switzerland
8500213,OBERBUCHSITEN,47.305246999999994,7.771724000000001,Switzerland
8500211,NIEDERBIPP,47.270402000000004,7.694817,Switzerland
8500210,WANGEN AN DER AARE,47.231957,7.6562339999999995,Switzerland
8500209,DEITINGEN,47.218226,7.618913,Switzerland
8500208,LUTERBACH-ATTISHOLZ,47.217149,7.583523,Switzerland
8502237,LUPFIG,47.445184000000005,8.214989,Switzerland
8502247,BIRR,47.435846999999995,8.217664,Switzerland
8502105,OTHMARSINGEN,47.407434,8.214805,Switzerland
8502114,RUPPERSWIL,47.403290000000005,8.126956,Switzerland
8508103,ROTHRIST,47.306456,7.879396000000001,Switzerland
8508102,MURGENTHAL,47.265381,7.832106,Switzerland
8508101,ROGGWIL-WYNAU,47.25164,7.814916,Switzerland
8502211,HENDSCHIKEN,47.389431,8.207389,Switzerland
8502212,DOTTIKON-DINTIKON,47.373647,8.23471,Switzerland
8502214,BOSWIL-BUNZEN,47.305182,8.315283,Switzerland
8502216,BENZENSCHWIL,47.246852000000004,8.365616000000001,Switzerland
8502217,MUHLAU,47.22502,8.388524,Switzerland
8502218,SINS,47.188314,8.39783,Switzerland
8502219,OBERRUTI,47.165926,8.404779,Switzerland
8503502,SIGGENTHAL-WURENLINGEN,47.52069,8.240658999999999,Switzerland
8503501,DOTTINGEN,47.57527,8.256364,Switzerland
8516176,KLINGNAU,47.581998999999996,8.24905,Switzerland
8503411,KOBLENZ DORF,47.609386,8.240163,Switzerland
8503410,RIETHEIM,47.60075,8.277327,Switzerland
8503409,BAD ZURZACH,47.588313,8.295588,Switzerland
8503408,REKINGEN AG,47.569971,8.327126,Switzerland
8502104,HUNZENSCHWIL,47.388286,8.125693,Switzerland
8502103,SUHR,47.371635,8.082289999999999,Switzerland
8502102,OBERENTFELDEN,47.356486,8.048387,Switzerland
8502101,KOLLIKEN,47.3373,8.026461,Switzerland
8502122,KOLLIKEN OBERDORF,47.324683,8.019091,Switzerland
8502100,SAFENWIL,47.321758,7.983517999999999,Switzerland
8502121,WALTERSWIL-STRIEGEL,47.319924,7.963203,Switzerland
8502120,KUNGOLDINGEN,47.302141999999996,7.941796000000001,Switzerland
8502116,SCHINZNACH BAD,47.451785,8.166948,Switzerland
8502128,HOLDERBANK AG,47.428643,8.166622,Switzerland
8771513,FRASNE,46.857749,6.1578919999999995,France
8501103,VALLORBE,46.712406,6.370565,Switzerland
8775100,MARSEILLE-SAINT-CHARLES,43.303812,5.38195,France
8731896,AVIGNON TGV,43.921937,4.786044,France
8772319,LYON PART DIEU,45.760564,4.85999,France
8774500,BELLEGARDE (AIN),46.110918,5.8259620000000005,France
8503305,EFFRETIKON,47.425812,8.686679,Switzerland
8503307,BASSERSDORF,47.438571,8.626221000000001,Switzerland
8503015,ZURICH WIPKINGEN,47.393039,8.529382,Switzerland
8502209,OBERRIEDEN DORF,47.276732,8.577652,Switzerland
8503306,DIETLIKON,47.420202,8.619276,Switzerland
8503147,STETTBACH,47.397215,8.596144,Switzerland
8503003,ZURICH STADELHOFEN,47.366609999999994,8.548489,Switzerland
8503020,ZURICH HARDBRUCKE,47.385197999999995,8.517126,Switzerland
8502106,MAGENWIL,47.414508000000005,8.235155,Switzerland
8516219,MELLINGEN HEITERSBERG,47.428075,8.276363,Switzerland
8506016,OBERWINTERTHUR,47.507922,8.760389,Switzerland
8503299,HURDEN,47.21414,8.800728999999999,Switzerland
139,DAMM,47.217327000000004,8.805061,Switzerland
8503110,RAPPERSWIL SG,47.224887,8.816744,Switzerland
8503120,JONA,47.230977,8.834617,Switzerland
8503121,RUTI ZH,47.260484000000005,8.854078999999999,Switzerland
8503122,BUBIKON,47.270841,8.822714,Switzerland
8503123,WETZIKON ZH,47.318032,8.792289,Switzerland
8503124,AATHAL,47.335959,8.765625,Switzerland
8503125,USTER,47.350369,8.718709,Switzerland
8502220,URDORF,47.390883,8.434731,Switzerland
8502229,URDORF WEIHERMATT,47.38097,8.430342,Switzerland
8502221,BIRMENSDORF ZH,47.357431,8.437555,Switzerland
8502222,BONSTETTEN-WETTSWIL,47.325901,8.468197,Switzerland
8502223,HEDINGEN,47.298784999999995,8.445966,Switzerland
8502224,AFFOLTERN AM ALBIS,47.276070000000004,8.446595,Switzerland
8502225,METTMENSTETTEN,47.244071000000005,8.457382,Switzerland
8502226,KNONAU,47.220264,8.466731,Switzerland
8503004,ZURICH TIEFENBRUNNEN,47.350125,8.561389,Switzerland
8503007,ZURICH SEEBACH,47.41875,8.54466,Switzerland
8503008,ZURICH AFFOLTERN,47.420909,8.508582,Switzerland
8503526,REGENSDORF-WATT,47.436564000000004,8.472085,Switzerland
8503340,OPFIKON,47.429955,8.561794,Switzerland
8503309,KLOTEN BALSBERG,47.44229,8.570718,Switzerland
8503308,KLOTEN,47.448607,8.58381,Switzerland
8503100,ZOLLIKON,47.337334999999996,8.569741,Switzerland
8503141,KUSNACHT GOLDBACH,47.326857000000004,8.575964,Switzerland
8503101,KUSNACHT ZH,47.319157000000004,8.580638,Switzerland
8503102,ERLENBACH ZH,47.305792,8.591522,Switzerland
8503111,WINKEL AM ZURICHSEE,47.297208000000005,8.598988,Switzerland
8503103,HERRLIBERG-FELDMEILEN,47.281827,8.612733,Switzerland
8503104,MEILEN,47.269811,8.644311,Switzerland
8503105,UETIKON,47.259029999999996,8.678787,Switzerland
8503106,MANNEDORF,47.253424,8.692346,Switzerland
8503107,STAFA,47.240527,8.721653,Switzerland
8503210,FREIENBACH SBB,47.207311,8.756217999999999,Switzerland
8503208,BACH SZ,47.200982,8.727174,Switzerland
8503207,RICHTERSWIL,47.208375,8.707481,Switzerland
8503205,AU ZH,47.246818,8.643725,Switzerland
8503204,HORGEN,47.261483,8.596916,Switzerland
8503203,OBERRIEDEN,47.279676,8.57846,Switzerland
8503201,RUSCHLIKON,47.307132,8.555163,Switzerland
8503200,KILCHBERG ZH,47.324432,8.548016,Switzerland
8503009,ZURICH WOLLISHOFEN,47.34744,8.5336,Switzerland
8503011,ZURICH WIEDIKON,47.371477,8.523485,Switzerland
8503129,WALLISELLEN,47.412723,8.591928,Switzerland
8503303,ILLNAU,47.408819,8.722728,Switzerland
8503302,FEHRALTORF,47.385123,8.750288000000001,Switzerland
8503301,PFAFFIKON ZH,47.367086,8.7848,Switzerland
8503211,ALTENDORF,47.193967,8.822905,Switzerland
8503126,NANIKON-GREIFENSEE,47.369363,8.686413,Switzerland
8503127,SCHWERZENBACH ZH,47.384386,8.658674000000001,Switzerland
8503128,DUBENDORF,47.400079999999996,8.623421,Switzerland
8503310,GLATTBRUGG,47.430827,8.558854,Switzerland
8503311,RUMLANG,47.454066,8.532767,Switzerland
8503312,OBERGLATT ZH,47.470205,8.510619,Switzerland
8503313,NIEDERGLATT ZH,47.487471,8.503316,Switzerland
8503224,BILTEN,47.152193,9.029917999999999,Switzerland
8503223,REICHENBURG,47.172698,8.982323,Switzerland
8503222,SCHUBELBACH-BUTTIKON,47.176390000000005,8.93878,Switzerland
8503130,HINWIL,47.300057,8.839719,Switzerland
8506049,DACHSEN,47.66709,8.613823,Switzerland
8506039,SCHLOSS LAUFEN AM RHEINFALL,47.676565999999994,8.614268,Switzerland
8506048,MARTHALEN,47.63138,8.656063,Switzerland
8506047,ANDELFINGEN,47.593765999999995,8.678002000000001,Switzerland
8506046,HENGGART,47.564257,8.685075,Switzerland
8506045,HETTLINGEN,47.545441,8.694834,Switzerland
8517336,LUZERN VERKEHRSHAUS,47.053932,8.337297,Switzerland
8505018,MEGGEN ZENTRUM,47.045194,8.374392,Switzerland
8505001,MEGGEN,47.050148,8.383061,Switzerland
8505011,MERLISCHACHEN,47.06766,8.409058,Switzerland
8505002,KUSSNACHT AM RIGI,47.083594,8.433517,Switzerland
8505003,IMMENSEE,47.091619,8.462672,Switzerland
8505005,STEINEN,47.047669,8.607449,Switzerland
8505006,SCHWYZ,47.026396999999996,8.632151,Switzerland
8505007,BRUNNEN,46.999175,8.610068,Switzerland
8505111,SISIKON,46.949253999999996,8.620747999999999,Switzerland
8505113,ALTDORF UR,46.875739,8.631575,Switzerland
8505114,ERSTFELD,46.820339000000004,8.650454,Switzerland
8503319,NIEDERWENINGEN,47.511201,8.36963,Switzerland
8503318,NIEDERWENINGEN DORF,47.505914000000004,8.381072999999999,Switzerland
8503317,SCHOFFLISDORF-OBERWENINGEN,47.497971,8.411812,Switzerland
8503316,STEINMAUR,47.489987,8.446858,Switzerland
8503315,DIELSDORF,47.482421,8.459444,Switzerland
8503314,NIEDERHASLI,47.478331,8.488707000000002,Switzerland
8506010,SIRNACH,47.461997,9.000474,Switzerland
8506011,ESCHLIKON TG,47.461490999999995,8.958536,Switzerland
8506012,GUNTERSHAUSEN,47.474121000000004,8.917032,Switzerland
8506013,AADORF,47.488118,8.903300999999999,Switzerland
8506014,ELGG,47.498529,8.863411,Switzerland
8506035,SCHOTTIKON,47.500118,8.811717999999999,Switzerland
8506015,RATERSCHEN,47.498682,8.795017,Switzerland
8516218,WINTERTHUR HEGI,47.501484999999995,8.768947,Switzerland
8506001,WINTERTHUR GRUZE,47.498754999999996,8.751055000000001,Switzerland
8518924,NEUHAUSEN RHEINFALL,47.679805,8.616946,Switzerland
8503420,LOTTSTETTEN,47.625735999999996,8.566822,Germany
8503403,HUNTWANGEN-WIL,47.581269,8.512848,Switzerland
8503402,EGLISAU,47.572375,8.516557,Switzerland
8503401,GLATTFELDEN,47.548558,8.524055,Switzerland
8504030,VILLARS-SUR-GLANE,46.78983,7.116385,Switzerland
8504029,MATRAN,46.788938,7.096328,Switzerland
8504028,ROSE,46.782633000000004,7.061969,Switzerland
8504027,NEYRUZ FR,46.766049,7.065027000000001,Switzerland
8504026,COTTENS FR,46.751213,7.034794000000001,Switzerland
8504025,CHENENS,46.749210999999995,7.000429,Switzerland
8504024,VILLAZ-ST-PIERRE,46.72058,6.960642,Switzerland
8504144,YVERDON-CHAMP PITTET,46.78215,6.662319999999999,Switzerland
8504130,YVONAND,46.800875,6.746687,Switzerland
8504131,CHEYRES,46.816946,6.7863929999999995,Switzerland
8504132,ESTAVAYER-LE-LAC,46.844499,6.842967,Switzerland
8504133,CUGY FR,46.816028,6.889164,Switzerland
8504134,PAYERNE,46.81965,6.939883999999999,Switzerland
8504135,CORCELLES-SUD,46.828846999999996,6.957192,Switzerland
8504136,COUSSET,46.818605,6.9774910000000006,Switzerland
8504137,LECHELLES,46.82846,7.011626,Switzerland
8504138,GROLLEY,46.831979,7.066052,Switzerland
8504139,BELFAUX CFF,46.816925,7.10623,Switzerland
8504181,GIVISIEZ,46.816756,7.129962,Switzerland
8517131,PRATTELN SALINA RAURICA,47.530588,7.7098889999999995,Switzerland
8500300,KAISERAUGST,47.538496,7.724135,Switzerland
8500313,RHEINFELDEN AUGARTEN,47.545878,7.768031,Switzerland
8500304,EIKEN,47.533044,7.9897979999999995,Switzerland
8500303,MUMPF,47.547626,7.909624000000001,Switzerland
8500022,FRENKENDORF-FULLINSDORF,47.50147,7.719111,Switzerland
8500024,LAUSEN,47.470345,7.759761999999999,Switzerland
8500025,ITINGEN,47.467279,7.787225,Switzerland
8500028,TECKNAU,47.44576,7.887617999999999,Switzerland
8500136,BASEL DREISPITZ,47.537436,7.609595,Switzerland
8500119,MUNCHENSTEIN,47.513397,7.617596000000001,Switzerland
8500118,DORNACH-ARLESHEIM,47.488620000000004,7.611119,Switzerland
8500117,AESCH BL,47.467745,7.6030679999999995,Switzerland
8500116,DUGGINGEN,47.453445,7.603460000000001,Switzerland
8500115,GRELLINGEN,47.441295000000004,7.591988000000001,Switzerland
8500114,ZWINGEN,47.433799,7.530461999999999,Switzerland
8500322,LAUFENBURG,47.559768,8.061296,Switzerland
8500037,TRIMBACH,47.366052,7.904285000000001,Switzerland
8500035,LAUFELFINGEN,47.392133,7.856231,Switzerland
8500034,BUCKTEN,47.408991,7.8478,Switzerland
8500033,RUMLINGEN,47.425379,7.850541000000001,Switzerland
8500032,SOMMERAU,47.439021000000004,7.851481,Switzerland
8500031,DIEPFLINGEN,47.449560999999996,7.837717,Switzerland
8500120,COURTETELLE,47.342828999999995,7.3179419999999995,Switzerland
8500121,COURFAIVRE,47.335083000000004,7.2911649999999995,Switzerland
8500122,BASSECOURT,47.336687,7.246846000000001,Switzerland
8500123,GLOVELIER,47.33521,7.209313000000001,Switzerland
8500124,ST-URSANNE,47.367703000000006,7.165957000000001,Switzerland
8500125,COURGENAY,47.405226,7.124205,Switzerland
8518475,MENDRISIO S. MARTINO,45.87722,8.983092,Switzerland
8505304,CAPOLAGO-RIVA S. VITALE,45.902837,8.978905000000001,Switzerland
8505303,MAROGGIA-MELANO,45.932435,8.973939999999999,Switzerland
8505302,MELIDE,45.955714,8.948359,Switzerland
8505301,LUGANO-PARADISO,45.989373,8.946889,Switzerland
8505219,LAMONE-CADEMPINO,46.039719,8.932125,Switzerland
8505218,TAVERNE-TORRICELLA,46.056686,8.93033,Switzerland
8505217,MEZZOVICO,46.094276,8.92859,Switzerland
8505216,RIVERA-BIRONICO,46.123977000000004,8.925286,Switzerland
8506104,MARSTETTEN,47.582821,9.062192999999999,Switzerland
8506103,MULLHEIM-WIGOLTINGEN,47.588165000000004,9.015522,Switzerland
8506102,HUTTLINGEN-METTENDORF,47.582344,8.974554,Switzerland
8506101,FELBEN-WELLHAUSEN,47.577102000000004,8.943175,Switzerland
8506019,ISLIKON,47.547835,8.846197,Switzerland
8506018,RICKENBACH-ATTIKON,47.535357,8.789174000000001,Switzerland
8506017,WIESENDANGEN,47.525543,8.776038,Switzerland
8771861,MORTEAU,47.053732000000004,6.604875999999999,France
8504317,LE LOCLE-COL-DES-ROCHES,47.049886,6.726071000000001,Switzerland
8771521,LABERGEMENT-SAINTE-MARIE,46.776391,6.280405,France
8504215,TRAVERS,46.942412,6.676561,Switzerland
8771500,PONTARLIER,46.900597999999995,6.353315,France
8718444,DELLE,47.505996,7.009441000000001,France
8509416,UNTERTERZEN,47.113857,9.255018,Switzerland
8503300,KEMPTEN,47.332043,8.804721,Switzerland
8501033,ROLLE,46.462746,6.336403,Switzerland
8516155,LANCY-PONT-ROUGE,46.185945000000004,6.124946,Switzerland
8516273,GENEVE-EAUX-VIVES,46.201445,6.16657,Switzerland
8774549,ANNEMASSE,46.199341,6.236404,France
8517142,LANCY-BACHET,46.174333000000004,6.129362,Switzerland
8516272,GENEVE-CHAMPEL,46.192192999999996,6.153499,Switzerland
8516274,CHENE-BOURG,46.1966,6.197333,Switzerland
8501302,VEYTAUX-CHILLON,46.417621000000004,6.927860000000001,Switzerland
8502227,STEINHAUSEN,47.194581,8.478437,Switzerland
8518459,STEINHAUSEN RIGIBLICK,47.187864000000005,8.479703,Switzerland
8503529,WURENLOS,47.445759,8.357667999999999,Switzerland
8503528,OTELFINGEN,47.454936,8.387532,Switzerland
8503525,OTELFINGEN GOLFPARK,47.455822,8.402113,Switzerland
8503527,BUCHS-DALLIKON,47.453405,8.435602000000001,Switzerland
8503304,KEMPTTHAL,47.452839000000004,8.705586,Switzerland
8503108,UERIKON,47.235861,8.752625,Switzerland
8503109,FELDBACH,47.239204,8.783498,Switzerland
8503112,KEMPRATEN,47.238398,8.81431,Switzerland
8506038,WINTERTHUR WALLRUTI,47.516721999999994,8.760882,Switzerland
8506036,REUTLINGEN,47.529659,8.752147,Switzerland
8506020,SEUZACH,47.535767,8.738883,Switzerland
8506002,WINTERTHUR SEEN,47.487435,8.766813,Switzerland
8506003,SENNHOF-KYBURG,47.465177000000004,8.760346,Switzerland
8506004,KOLLBRUNN,47.458324,8.774016,Switzerland
8506005,RIKON,47.445009999999996,8.796332000000001,Switzerland
8506006,RAMISMUHLE-ZELL,47.441539,8.819137,Switzerland
8506007,TURBENTHAL,47.437385,8.843819,Switzerland
8506008,WILA,47.417774,8.848491000000001,Switzerland
8503226,NIEDER- UND OBERURNEN,47.122362,9.062394,Switzerland
8503227,NAFELS-MOLLIS,47.098719,9.069957,Switzerland
8503228,NETSTAL,47.064529,9.059435,Switzerland
8503230,GLARUS,47.039924,9.071566,Switzerland
8503231,ENNENDA,47.032959999999996,9.077194,Switzerland
8503232,MITLODI,47.010132,9.081211,Switzerland
8503233,SCHWANDEN GL,46.996852000000004,9.077466000000001,Switzerland
8503234,NIDFURN-HASLEN,46.985895,9.059275999999999,Switzerland
8503235,LEUGGELBACH,46.975743,9.046944,Switzerland
8503236,LUCHSINGEN-HATZINGEN,46.965071,9.039022000000001,Switzerland
8503237,DIESBACH-BETSCHWANDEN,46.946181,9.024372999999999,Switzerland
8503238,RUTI GL,46.934546000000005,9.013039,Switzerland
8503240,LINTHAL BRAUNWALDBAHN,46.928396,9.002491000000001,Switzerland
8503239,LINTHAL,46.925564,8.997795,Switzerland
8515993,BAAR LINDENPARK,47.183137,8.517058,Switzerland
8515992,BAAR NEUFELD,47.188493,8.51778,Switzerland
8516350,BUCHRAIN,47.09365,8.356658,Switzerland
8515997,ROOT D4,47.104856,8.373808,Switzerland
8515996,HUNENBERG ZYTHUS,47.173608,8.450095,Switzerland
8515995,CHAM ALPENBLICK,47.182282,8.471463,Switzerland
8502230,ZUG CHOLLERMULI,47.180238,8.486645,Switzerland
8516187,ZUG SCHUTZENGEL,47.173725,8.507242,Switzerland
8502306,HUNENBERG CHAMLETEN,47.169159,8.449908,Switzerland
8502205,WALCHWIL,47.098687,8.516934,Switzerland
8517112,WALCHWIL HORNDLI,47.108461,8.504777,Switzerland
8502231,ZUG OBERWIL,47.147684000000005,8.50994,Switzerland
8515994,ZUG FRIDBACH,47.156581,8.512291000000001,Switzerland
8517527,ZUG CASINO,47.162318,8.515202,Switzerland
8502300,ZUG POSTPLATZ,47.168276,8.516936999999999,Switzerland
8502034,BEINWIL AM SEE,47.26722,8.202235,Switzerland
8502033,BIRRWIL,47.287857,8.199017,Switzerland
8502032,BONISWIL,47.315039,8.184560000000001,Switzerland
8502031,HALLWIL,47.328639,8.175949000000001,Switzerland
8502030,SEON,47.346149,8.158807000000001,Switzerland
8502017,WALDIBRUCKE,47.107898999999996,8.31971,Switzerland
8502022,ESCHENBACH LU,47.132396,8.322791,Switzerland
8502023,BALLWIL,47.153768,8.316899000000001,Switzerland
8502042,HOCHDORF SCHONAU,47.164569,8.298733,Switzerland
8502024,HOCHDORF,47.166975,8.2887,Switzerland
8516353,BALDEGG KLOSTER,47.180616,8.280597,Switzerland
8502025,BALDEGG,47.185689,8.280232,Switzerland
8502026,GELFINGEN,47.213559000000004,8.264824,Switzerland
8502027,HITZKIRCH,47.222673,8.252001,Switzerland
8502019,ERMENSEE,47.229690999999995,8.242314,Switzerland
8502029,MOSEN,47.244292,8.224159,Switzerland
8501007,VERNIER,46.220719,6.093891,Switzerland
8501006,MEYRIN,46.222335,6.0769,Switzerland
8501000,ZIMEYSA,46.22124,6.0659849999999995,Switzerland
8501003,SATIGNY,46.214227,6.0376650000000005,Switzerland
8501002,RUSSIN,46.188395,6.018035,Switzerland
8501001,LA PLAINE,46.178665,5.999993,Switzerland
8516283,GENEVE-SECHERON,46.22244,6.144561,Switzerland
8501020,CHAMBESY,46.240945,6.147304,Switzerland
8501011,LES TUILERIES,46.249946,6.147337,Switzerland
8501021,GENTHOD-BELLEVUE,46.256738,6.15396,Switzerland
8501012,CREUX-DE-GENTHOD,46.263768,6.161312000000001,Switzerland
8501013,PONT-CEARD,46.287397999999996,6.1626650000000005,Switzerland
8501014,MIES,46.298489000000004,6.167654,Switzerland
8501015,TANNAY,46.307645,6.18112,Switzerland
8518452,PRILLY-MALLEY,46.526692,6.602628,Switzerland
8501117,BUSSIGNY,46.54759,6.551826,Switzerland
8501116,VUFFLENS-LA-VILLE,46.576245,6.530767,Switzerland
8501115,COSSONAY-PENTHALAZ,46.60601,6.523689,Switzerland
8501114,ECLEPENS,46.657191,6.552421,Switzerland
8501113,BAVOIS,46.68768,6.559335000000001,Switzerland
8501112,CHAVORNAY,46.710085,6.568163,Switzerland
8501111,ESSERT-PITTET,46.727672999999996,6.580655999999999,Switzerland
8501110,EPENDES VD,46.746415999999996,6.607661,Switzerland
8504000,PULLY-NORD,46.514681,6.657986999999999,Switzerland
8504010,LA CONVERSION,46.513084,6.678324000000001,Switzerland
8504003,BOSSIERE,46.509749,6.699321,Switzerland
8504011,GRANDVAUX,46.496947999999996,6.72265,Switzerland
8504012,PUIDOUX,46.493840999999996,6.765686,Switzerland
8504007,MOREILLON,46.508398,6.785645,Switzerland
8504016,PALEZIEUX-VILLAGE,46.557113,6.828875,Switzerland
8504017,CHATILLENS,46.570533000000005,6.815482,Switzerland
8504018,ECUBLENS-RUE,46.61043,6.8110539999999995,Switzerland
8504120,MOUDON,46.668057,6.802508,Switzerland
8504121,LUCENS,46.707771,6.84215,Switzerland
8504141,HENNIEZ,46.735001000000004,6.870106,Switzerland
8504122,GRANGES-MARNAND,46.758845,6.89429,Switzerland
8504123,CORCELLES-NORD,46.835262,6.960294,Switzerland
8504124,DOMPIERRE FR,46.854403000000005,6.985367999999999,Switzerland
8504125,DOMDIDIER,46.868512,7.011382000000001,Switzerland
8504126,AVENCHES,46.884602,7.040925,Switzerland
8504127,FAOUG,46.908242,7.0746009999999995,Switzerland
8504128,MURTEN/MORAT,46.925346999999995,7.1152820000000006,Switzerland
8501045,DENGES-ECHANDENS,46.529127,6.5405050000000005,Switzerland
8501048,LONAY-PREVERENGES,46.523136,6.519544000000001,Switzerland
8501047,MORGES-ST-JEAN,46.518195,6.508043,Switzerland
8501036,ST-PREX,46.482317,6.4559050000000004,Switzerland
8501042,ETOY,46.475173,6.427135,Switzerland
8501301,TERRITET,46.426382000000004,6.922707000000001,Switzerland
8501127,ST-SAPHORIN,46.472594,6.797033,Switzerland
8501126,RIVAZ,46.474208000000004,6.7845949999999995,Switzerland
8501125,EPESSES,46.489329,6.745166,Switzerland
8501123,VILLETTE VD,46.495337,6.707286999999999,Switzerland
8501122,LUTRY,46.503787,6.690608999999999,Switzerland
8501121,PULLY,46.510923999999996,6.6594679999999995,Switzerland
8501108,LA SARRAZ,46.658784999999995,6.517361,Switzerland
8501107,ARNEX,46.698078,6.518907,Switzerland
8501106,CROY-ROMAINMOTIER,46.696712,6.478116,Switzerland
8501105,BRETONNIERES,46.715055,6.474732,Switzerland
8501104,LE DAY,46.717376,6.4006680000000005,Switzerland
8504020,ORON,46.572546,6.837103999999999,Switzerland
8504021,VAUDERENS,46.621455,6.8500369999999995,Switzerland
8504015,VEVEY-FUNI,46.468277,6.835443,Switzerland
8504040,CORSEAUX-CORNALLES,46.470451000000004,6.8247800000000005,Switzerland
8504013,CHEXBRES-VILLAGE,46.481057,6.778538,Switzerland
8504140,MUNTELIER-LOWENBERG,46.937974,7.133261,Switzerland
8504129,GALMIZ,46.950871,7.153207000000001,Switzerland
8504400,KERZERS,46.975079,7.192810000000001,Switzerland
8505212,CASTIONE-ARBEDO,46.222922,9.041462,Switzerland
8505202,AMBRI-PIOTTA,46.510764,8.689928,Switzerland
8505204,FAIDO,46.483076000000004,8.79071,Switzerland
8505205,LAVORGO,46.440902,8.839747000000001,Switzerland
8505207,BODIO TI,46.380255,8.906566999999999,Switzerland
8325432,COMO CAMERLATA,45.784494,9.079514,Italy
8301310,ALBATE-CAMERLATA,45.783184000000006,9.079832000000001,Italy
8505404,CADENAZZO,46.15262,8.941699,Switzerland
8301113,LUINO (I),45.996704,8.737405,Italy
8505415,S. ANTONINO,46.160441,8.973937,Switzerland
8505405,QUARTINO,46.151298,8.887331,Switzerland
8505406,MAGADINO-VIRA,46.145315999999994,8.850189,Switzerland
8505407,S. NAZZARO,46.135158000000004,8.807058999999999,Switzerland
8505410,GERRA (GAMBAROGNO),46.122040999999996,8.784969,Switzerland
8505408,RANZO-S. ABBONDIO,46.116997999999995,8.776537,Switzerland
8505862,PINO-TRONZANO,46.098928,8.736951,Italy
8505861,MACCAGNO,46.045409,8.735584,Italy
8505874,COLMEGNA,46.024762,8.751882,Italy
8301116,PORTO VALTRAVAGLIA,45.958141,8.673732000000001,Italy
8301117,CALDE,45.945681,8.66347,Italy
8301118,LAVENO-MOMBELLO,45.903141999999995,8.624525,Italy
8301140,SANGIANO,45.874368,8.63082,Italy
8301141,BESOZZO,45.842564,8.663266,Italy
8301142,TRAVEDONA-BIANDRONNO,45.79938,8.700523,Italy
8301143,TERNATE-VARANO BORGHI,45.78236,8.699942,Italy
8301144,MORNAGO-CIMBRO,45.729946000000005,8.7342,Italy
8301145,BESNATE,45.696156,8.760575,Italy
8301030,GALLARATE,45.660455,8.798832,Italy
8517519,STABIO,45.849709999999995,8.943942,Switzerland
8516013,CANTELLO-GAGGIOLO,45.837843,8.907411999999999,Italy
8301203,ARCISATE,45.858102,8.862598,Italy
8301204,INDUNO OLONA,45.846717,8.837842,Italy
8301205,VARESE,45.819767999999996,8.834581,Italy
8505412,RIAZZINO,46.175336,8.886397,Switzerland
8505402,GORDOLA,46.17904,8.865772999999999,Switzerland
8505401,TENERO,46.177467,8.850226,Switzerland
8301318,SEREGNO,45.644521999999995,9.202122,Italy
8320005,MALPENSA AEROPORTO T2,45.627214,8.71112,Italy
8325635,MALPENSA AEROPORTO T1,45.627214,8.71112,Italy
8319371,FERNO-LONATE POZZOLO,45.608373,8.758724,Italy
8325631,BUSTO ARSIZIO NORD,45.60543,8.852217,Italy
8301031,BUSTO ARSIZIO,45.6159,8.865793,Italy
8500294,BALSTHAL,47.313193,7.694667999999999,Switzerland
8500293,THALBRUCKE,47.308422,7.688271,Switzerland
8500292,KLUS,47.304264,7.693792,Switzerland
8301645,MILANO PORTA GARIBALDI,45.484437,9.187297000000001,Italy
8718440,MEROUX TGV,47.586006,6.89803,France
8718442,MORVILLARS,47.545704,6.935124000000001,France
8718443,GRANDVILLARS,47.538646,6.972967999999999,France
8770015,JONCHEREY,47.525693,7.001086,France
8509412,MELS,47.053746000000004,9.417758000000001,Switzerland
8501420,MASSONGEX,46.241207,6.98566,Switzerland
8501421,MONTHEY,46.255656,6.955226,Switzerland
8501422,COLLOMBEY,46.271193,6.9487559999999995,Switzerland
8501423,VIONNAZ,46.315033,6.916202,Switzerland
8501424,VOUVRY,46.337296,6.897575,Switzerland
8501425,LES EVOUETTES,46.362867,6.8794699999999995,Switzerland
8501426,BOUVERET,46.385816999999996,6.853242999999999,Switzerland
8501428,ST-GINGOLPH (SUISSE),46.392194,6.805931,Switzerland
8500016,BASEL ST. JOHANN,47.570306,7.572528999999999,Switzerland
8718213,SAINT-LOUIS (HAUT-RHIN),47.590592,7.5557479999999995,France
8721202,STRASBOURG,48.585339000000005,7.734067,France
8774538,POUGNY-CHANCY,46.144737,5.9611849999999995,France
8776100,VALENCE,44.927653,4.893476000000001,France
8774700,GRENOBLE,45.191187,5.714167,France
8774107,CULOZ,45.842945,5.7789269999999995,France
8501552,LES MONTUIRES,46.06694,6.946331,Switzerland
8530832,PIED DU BARRAGE,46.065875,6.935291,Switzerland
8501691,RIFFELALP,46.004899,7.754355,Switzerland
8501692,RIFFELBERG,45.992951,7.755099,Switzerland
8501693,ROTENBODEN,45.984466,7.765374,Switzerland
8501694,GORNERGRAT,45.983319,7.7822059999999995,Switzerland
8501690,ZERMATT GGB,46.02395,7.74868,Switzerland
8501679,FINDELBACH,46.009673,7.74887,Switzerland
8507361,EIGERGLETSCHER,46.574808000000004,7.974075,Switzerland
8507374,KLEINE SCHEIDEGG,46.584795,7.960122,Switzerland
8507364,JUNGFRAUJOCH,46.547468,7.9820850000000005,Switzerland
8505372,S. NICOLAO,45.886379999999996,8.988878,Switzerland
8505373,BELLAVISTA,45.911114000000005,9.001139,Switzerland
8505374,GENEROSO VETTA,45.928103,9.019003999999999,Switzerland
8505367,CAPOLAGO LAGO,45.906014,8.980863000000001,Switzerland
8501360,MONTREUX-LES PLANCHES,46.4331,6.917559,Switzerland
8501361,TOVEYRE,46.4279,6.928469000000001,Switzerland
8501362,VALMONT,46.42855,6.929299,Switzerland
8501370,GLION,46.431779999999996,6.9247190000000005,Switzerland
8501230,GLION-ALPES,46.43286,6.924319000000001,Switzerland
8501308,GLION-COLLEGE,46.43385,6.926199,Switzerland
8501363,LE TREMBLEX,46.436040000000006,6.932749,Switzerland
8501371,CAUX,46.43114,6.938519,Switzerland
8501357,HAUT-DE-CAUX,46.43437,6.947949,Switzerland
8501364,LES ECHETS,46.432179999999995,6.944889,Switzerland
8501365,CRET-D'Y-BAU,46.43515,6.955369,Switzerland
8501366,PACCOT,46.43776,6.962689,Switzerland
8501367,JAMAN,46.441340000000004,6.976789,Switzerland
8501368,LA PERCHE,46.4364,6.975099,Switzerland
8501369,ROCHERS-DE-NAYE,46.43168,6.979019,Switzerland
8508359,INNERTKIRCHEN MIB,46.702259999999995,8.232509,Switzerland
8508395,INNERTKIRCHEN GRIMSELTOR,46.70557,8.229589,Switzerland
8530800,INNERTKIRCHEN UNTERWASSER,46.7081,8.226078999999999,Switzerland
8530801,AARESCHLUCHT OST MIB,46.712,8.217899000000001,Switzerland
8530760,AARESCHLUCHT WEST,46.72125,8.198578999999999,Switzerland
8530799,MEIRINGEN ALPBACH,46.72311,8.190009,Switzerland
8508308,MEIRINGEN,46.72732,8.184229,Switzerland
8508458,ALPNACHSTAD PB,46.955494,8.277182,Switzerland
8508449,AEMSIGEN,46.970525,8.271227,Switzerland
8508456,PILATUS KULM,46.979432,8.255947,Switzerland
8505063,ARTH-GOLDAU RB,47.048885,8.547773,Switzerland
8505062,GOLDAU A4,47.043583,8.547255999999999,Switzerland
8505064,KRABEL,47.040214,8.53079,Switzerland
8505065,FRUTTLI,47.038396999999996,8.504975,Switzerland
8505066,RIGI KLOSTERLI,47.042547,8.487134,Switzerland
8505067,RIGI WOLFERTSCHEN-FIRST,47.047249,8.476513,Switzerland
8505068,RIGI STAFFEL,47.053683,8.474242,Switzerland
8505069,RIGI KULM,47.055176,8.485235000000001,Switzerland
8508464,VITZNAU,47.009359,8.482382000000001,Switzerland
8505079,MITTLERSCHWANDEN,47.019191,8.482467999999999,Switzerland
8505071,GRUBISBALM,47.026210999999996,8.483131,Switzerland
8505072,FREIBERGEN,47.030046999999996,8.479732,Switzerland
8505073,ROMITI FELSENTOR,47.036440999999996,8.475922,Switzerland
8505074,RIGI KALTBAD-FIRST,47.044009,8.466698,Switzerland
8505075,RIGI STAFFELHOHE,47.048095,8.4645,Switzerland
8507387,SCHYNIGE PLATTE,46.652305,7.911301,Switzerland
8507386,BREITLAUENEN,46.659844,7.8955839999999995,Switzerland
8507388,WILDERSWIL,46.6657,7.8694690000000005,Switzerland
8507384,LAUTERBRUNNEN,46.59843,7.908089,Switzerland
8507555,WENGWALD,46.609188,7.913626,Switzerland
8507372,WENGEN,46.604902,7.9210020000000005,Switzerland
8507373,WENGERNALP,46.575562,7.9389389999999995,Switzerland
8507550,ALLMEND,46.594033,7.931972,Switzerland
8507376,GRINDELWALD GRUND,46.622648,8.023328,Switzerland
8507380,GRINDELWALD,46.624359999999996,8.033309,Switzerland
8507375,ALPIGLEN,46.600105,8.001903,Switzerland
8507552,BRANDEGG,46.60918,8.011173,Switzerland
8530612,REALP DFB,46.595667,8.501271000000001,Switzerland
8530613,TIEFENBACH DFB,46.587547,8.464627,Switzerland
8530614,FURKA DFB,46.576208,8.428457,Switzerland
8501634,MUTTBACH-BELVEDERE,46.567203000000006,8.404330999999999,Switzerland
8501635,GLETSCH,46.561306,8.361485,Switzerland
8501661,OBERWALD,46.530840000000005,8.342939,Switzerland
8506286,APPENZELL,47.32829,9.408828999999999,Switzerland
8506271,GONTENBAD,47.331664,9.372436,Switzerland
8506285,GONTEN,47.328379999999996,9.347729,Switzerland
8506284,JAKOBSBAD,47.32007,9.328319,Switzerland
8506283,URNASCH,47.317831,9.285461999999999,Switzerland
8506282,ZURCHERSMUHLE,47.33033,9.292579,Switzerland
8506281,WALDSTATT,47.357515,9.286109,Switzerland
8506280,HERISAU WILEN,47.37551,9.279419,Switzerland
8506290,HERISAU,47.39017,9.276799,Switzerland
8506275,STEINEGG,47.32056,9.430399000000001,Switzerland
8506288,WEISSBAD,47.310445,9.435701,Switzerland
8506277,SCHWENDE,47.30002,9.435619,Switzerland
8506289,WASSERAUEN,47.285740000000004,9.428839,Switzerland
8506369,TROGEN,47.407340000000005,9.461478999999999,Switzerland
8506368,GFELD,47.404990000000005,9.455869,Switzerland
8506367,BENDLEHN,47.406957,9.450510000000001,Switzerland
8506366,SPEICHER,47.410999,9.442714,Switzerland
8506365,SCHUTZENGARTEN,47.412724,9.438253999999999,Switzerland
8506364,VOGELINSEGG,47.416090000000004,9.436388,Switzerland
8506362,SCHWARZER BAREN,47.42242,9.415439,Switzerland
8506361,ST. GALLEN NOTKERSEGG,47.425228000000004,9.404039,Switzerland
8518100,ST. GALLEN BIRNBAUMEN,47.425940000000004,9.393429,Switzerland
8506359,ST. GALLEN SCHULERHAUS,47.42491,9.387528999999999,Switzerland
8506358,ST. GALLEN SPISERTOR,47.424640000000004,9.379709,Switzerland
8506270,ST. GALLEN MARKTPLATZ,47.426390000000005,9.376379,Switzerland
8506371,ST. GALLEN RIETHUSLI,47.41138,9.367271,Switzerland
8506372,LUSTMUHLE,47.400240000000004,9.359209,Switzerland
8506373,NIEDERTEUFEN,47.39216,9.367799,Switzerland
8506374,STERNEN BEI TEUFEN,47.38962,9.374528999999999,Switzerland
8506470,TEUFEN AR STOFEL,47.390999,9.379984,Switzerland
8506375,TEUFEN AR,47.39027,9.390069,Switzerland
8506376,STEIGBACH,47.377,9.404809,Switzerland
8506377,BUHLER,47.373020000000004,9.421128999999999,Switzerland
8506276,STRAHLHOLZ,47.366440000000004,9.431969,Switzerland
8506382,ZWEIBRUCKEN,47.360162,9.444417,Switzerland
8506378,GAIS,47.36092,9.451169,Switzerland
8506381,SAMMELPLATZ,47.34848,9.432549,Switzerland
8506380,HIRSCHBERG,47.331309999999995,9.422829,Switzerland
8506383,HEBRIG,47.36215,9.464709,Switzerland
8506384,SCHACHEN (GAIS),47.36152,9.477259,Switzerland
8506385,RIETLI,47.36071,9.487199,Switzerland
8506386,STOSS AR,47.36083,9.495169,Switzerland
8506387,KREUZSTRASSE,47.3657,9.505599,Switzerland
8506388,WARMESBERG,47.36537,9.513558999999999,Switzerland
8506389,ALTER ZOLL,47.36854,9.522079,Switzerland
8506379,ALTSTATTEN STADT,47.37676,9.537309,Switzerland
8506355,HEIDEN,47.445997999999996,9.536488,Switzerland
8506354,SCHWENDI BEI HEIDEN,47.45941,9.530739,Switzerland
8506353,WIENACHT-TOBEL,47.46621,9.540629,Switzerland
8506352,WARTENSEE,47.4718,9.533579,Switzerland
8506400,SANDBUCHEL,47.475390000000004,9.521749,Switzerland
8506278,SEEBLEICHE,47.47752,9.516349,Switzerland
8506306,RORSCHACH HAFEN,47.478590000000004,9.492923,Switzerland
8506350,WALZENHAUSEN,47.45174,9.601258999999999,Switzerland
8506351,RUDERBACH,47.461534,9.595289999999999,Switzerland
8506313,RHEINECK,47.466885999999995,9.590913,Switzerland
8530335,AIGLE-HOPITAL,46.31047,6.966049000000001,Switzerland
8501459,ST-TRIPHON-VILLAGE,46.30207,6.975789,Switzerland
8501461,OLLON VD,46.29683,6.993099000000001,Switzerland
8530355,LES ARNOUX,46.291309999999996,6.996778999999999,Switzerland
8501458,VILLY,46.2869,6.9943990000000005,Switzerland
8501452,ST-TRIPHON-GARE,46.278220000000005,6.973719,Switzerland
8530366,PONT DU RHONE,46.27615,6.961778999999999,Switzerland
8501726,CORBIER,46.27218,6.951439,Switzerland
8501462,COLLOMBEY-MURAZ,46.27017,6.946019000000001,Switzerland
8501229,MONTHEY-EN PLACE,46.26023,6.945919,Switzerland
8501463,MONTHEY-VILLE,46.2541,6.9474990000000005,Switzerland
8501457,MONTHEY-HOPITAL,46.25188,6.940749,Switzerland
8501456,CHEMEX,46.24362,6.930049,Switzerland
8501460,CROIX-DU-NANT,46.239670000000004,6.927449,Switzerland
8530378,LES NEYS,46.23602,6.924778999999999,Switzerland
8530430,ROUTE DE MORGINS,46.2318,6.920259,Switzerland
8501464,TROISTORRENTS,46.22829,6.915808999999999,Switzerland
8593467,PONT DE FAYOT,46.21902,6.903728999999999,Switzerland
8501454,FAYOT,46.21206,6.899508999999999,Switzerland
8501465,VAL-D'ILLIEZ,46.20361,6.893219,Switzerland
8530463,EN CHARNET,46.19702,6.887009,Switzerland
8501453,LA COUR,46.19424,6.886678999999999,Switzerland
8501466,CHAMPERY-VILLAGE,46.18148,6.874839,Switzerland
8501448,CHAMPERY,46.17495,6.8714889999999995,Switzerland
8501484,AIGLE-DEPOT,46.318290000000005,6.975369000000001,Switzerland
8501485,FONTANNEY,46.31832,6.982299,Switzerland
8501179,PONT-DE-DRAPEL,46.31986,6.986519,Switzerland
8501480,RENNAZ (LEYSIN),46.32736,7.000869000000001,Switzerland
8501199,LA ROULAZ,46.33132,7.001479,Switzerland
8501481,LEYSIN-VILLAGE,46.339259999999996,7.006049000000001,Switzerland
8501725,VERSMONT,46.34142,7.0069490000000005,Switzerland
8501482,LEYSIN-FEYDEY,46.344440000000006,7.008359,Switzerland
8501483,LEYSIN-GRAND-HOTEL,46.34555,7.006429,Switzerland
8501554,AIGLE-PLACE-DU-MARCHE,46.317240000000005,6.970339,Switzerland
8501479,LES DIABLERETS,46.35116,7.155019,Switzerland
8593774,LA FAVERGE,46.354929999999996,7.147119,Switzerland
8593773,LES BOVETS,46.35546,7.141639,Switzerland
8501477,VERS-L'EGLISE,46.353629999999995,7.134139,Switzerland
8593776,PLAN MORIER,46.35357,7.129199000000001,Switzerland
8593775,LES NICOLETS,46.354459999999996,7.119539,Switzerland
8501476,LES AVIOLATS,46.35297,7.113159,Switzerland
8517485,SUR-LE-BUIS,46.3533,7.100629,Switzerland
8501475,LES ECHENARDS,46.35535,7.085058999999999,Switzerland
8501473,LES PLANCHES (AIGLE),46.355340000000005,7.055269,Switzerland
8501474,LE SEPEY,46.36124,7.052789,Switzerland
8501469,LES FONTANELLES,46.34313,7.0454490000000005,Switzerland
8501472,EXERGILLOD,46.337109999999996,7.038479,Switzerland
8501471,PLAMBUIT,46.32735,7.023969,Switzerland
8501470,VERSCHIEZ,46.308174,6.983667999999999,Switzerland
8517484,AIGLE-PARC AVENTURE,46.3153,6.986219,Switzerland
8501468,AIGLE-CHATEAU,46.316872,6.978921000000001,Switzerland
8501495,VILLARS-SUR-OLLON,46.29626,7.056228999999999,Switzerland
8501494,ARVEYES,46.29125,7.062689,Switzerland
8501727,LA CLAIRIERE,46.288340000000005,7.067999,Switzerland
8501493,LA BARBOLEUSE,46.28275,7.070489,Switzerland
8588193,GRYON BOIS-GENTIL,46.27773,7.0675490000000005,Switzerland
8501492,GRYON,46.273579999999995,7.059709,Switzerland
8593772,GRYON-CHALMERY,46.27364,7.051908999999999,Switzerland
8501491,LES POSSES,46.27117,7.050889,Switzerland
8501490,FONTANNAZ-SEULAZ,46.2676,7.055849,Switzerland
8501488,BEVIEUX,46.258990000000004,7.030879,Switzerland
8530246,FOYER DENTS-DU-MIDI,46.25639,7.029839,Switzerland
8530067,LES SALINES,46.25484,7.027639,Switzerland
8530066,GRAND-MOULIN,46.25262,7.023219,Switzerland
8530064,BEX PONT-NEUF,46.25052,7.020819,Switzerland
8501487,BEX-PLACE-DU-MARCHE,46.25091,7.014429,Switzerland
8530523,LA RUAZ,46.25308,7.007719,Switzerland
8501447,ROCHES GRISES,46.29376,7.0610990000000005,Switzerland
8501497,COL-DE-SOUD,46.30494,7.069539,Switzerland
8501446,VILLARS-SUR-OLLON GOLF,46.30912,7.075489,Switzerland
8501498,BOUQUETINS,46.3164,7.072339,Switzerland
8501499,COL-DE-BRETAYE,46.32193,7.073608999999999,Switzerland
8501096,BIERE,46.537440000000004,6.3369089999999995,Switzerland
8501095,BALLENS,46.55226,6.374459,Switzerland
8501085,BALLENS-FROIDEVILLE,46.549659999999996,6.390229,Switzerland
8501094,APPLES,46.55088,6.423579,Switzerland
8501083,REVEROLLE,46.54043,6.430969,Switzerland
8501082,CHARDONNEY-CHATEAU,46.5347,6.4325589999999995,Switzerland
8501093,YENS,46.51996,6.427319000000001,Switzerland
8501092,BUSSY-CHARDONNEY,46.52678,6.446509,Switzerland
8501080,LE MARAIS,46.52747,6.462589,Switzerland
8501091,VUFFLENS-LE-CHATEAU,46.524809999999995,6.473179,Switzerland
8501081,CHIGNY,46.516020000000005,6.472249,Switzerland
8501090,PRELIONNE,46.50947,6.480269,Switzerland
8501054,LA GOTTAZ,46.50655,6.484458999999999,Switzerland
8501084,LE MANEGE,46.55912,6.432169,Switzerland
8501097,PAMPIGNY-SEVERY,46.57698,6.432169,Switzerland
8501087,MAURAZ,46.584920000000004,6.429719,Switzerland
8501088,TUILERIE,46.5928,6.414219,Switzerland
8501098,MONTRICHER,46.59633,6.3930489999999995,Switzerland
8501089,VILLARS-BOZON,46.610459999999996,6.402359,Switzerland
8501099,L'ISLE,46.61727,6.411179,Switzerland
8502273,BREMGARTEN,47.35147,8.346559,Switzerland
8502276,BERIKON-WIDEN,47.36218,8.366789,Switzerland
8502248,BREMGARTEN OBERTOR,47.350568,8.343749,Switzerland
8502185,BREMGARTEN ISENLAUF,47.346065,8.341525,Switzerland
8502272,BREMGARTEN WEST,47.34558,8.337309,Switzerland
8502269,ERDMANNLISTEIN,47.34959,8.312759,Switzerland
8502271,WOHLEN OBERDORF,47.34689,8.286259,Switzerland
8517377,BIBENLOS-SONNENHOF,47.353790000000004,8.350269,Switzerland
8502274,ZUFIKON,47.35252,8.354709,Switzerland
8502188,ZUFIKON HAMMERGUT,47.3559,8.354599,Switzerland
8502275,WIDEN HEINRUTI,47.361925,8.35487,Switzerland
8502268,ZUFIKON BELVEDERE,47.35758,8.359229,Switzerland
8502187,RUDOLFSTETTEN HOFACKER,47.364740000000005,8.377028999999999,Switzerland
8502277,RUDOLFSTETTEN,47.3695,8.381179,Switzerland
8502278,REPPISCHHOF,47.38473,8.396229,Switzerland
8502186,DIETIKON STOFFELBACH,47.3934,8.398939,Switzerland
8502270,BERGFRIEDEN,47.39771,8.399089,Switzerland
8517376,DIETIKON SCHONEGGSTRASSE,47.401961,8.400988,Switzerland
8507379,MURREN BLM,46.564106,7.897241,Switzerland
8507560,WINTEREGG,46.581804999999996,7.896047,Switzerland
8507378,GRUTSCHALP,46.596515999999994,7.890873,Switzerland
8301326,MILANO GRECO PIRELLI,45.512893,9.214492,Italy
8301325,SESTO S. GIOVANNI,45.541034,9.239353999999999,Italy
8301321,LISSONE-MUGGIO,45.606038,9.235335000000001,Italy
8301320,DESIO,45.617834,9.217917,Italy
8301316,CAMNAGO-LENTATE,45.666203,9.133291,Italy
8301315,CARIMATE,45.69446,9.107547,Italy
8301313,CANTU-CERMENATE,45.713423,9.098367,Italy
8301312,CUCCIAGO,45.73831,9.083452000000001,Italy
8504511,BOUDRY LITTORAIL,46.949484999999996,6.8391470000000005,Switzerland
8594231,AREUSE LES ISLES LITTORAIL,46.95422,6.848578999999999,Switzerland
8595245,AREUSE LITTORAIL,46.954495,6.853056,Switzerland
8504325,COLOMBIER NE LITTORAIL,46.965871,6.865417999999999,Switzerland
8504510,AUVERNIER LITTORAIL,46.974734999999995,6.878069,Switzerland
8504509,"NEUCHATEL, PORT-DE-SERRIERES",46.98089,6.9048300000000005,Switzerland
8504398,"NEUCHATEL,PLACE PURY LITTORAIL",46.989412,6.9281880000000005,Switzerland
8504414,LYSS,47.076324,7.3063009999999995,Switzerland
8504411,MUNCHENBUCHSEE,47.021376000000004,7.4519470000000005,Switzerland
8504412,SCHUPFEN,47.04186,7.386002,Switzerland
8504413,SUBERG-GROSSAFFOLTERN,47.058782,7.339005,Switzerland
8504483,INS,46.999831,7.09956,Switzerland
8504480,ST-BLAISE-LAC,47.012104,6.984686,Switzerland
8504484,MUNTSCHEMIER,46.993323,7.142438,Switzerland
8504486,GUMMENEN,46.942182,7.234408999999999,Switzerland
8507290,ZWEISIMMEN,46.553483,7.374861,Switzerland
8507292,BOLTIGEN,46.627368,7.390072999999999,Switzerland
8507293,OBERWIL IM SIMMENTAL,46.656136,7.4354830000000005,Switzerland
8507296,ERLENBACH IM SIMMENTAL,46.659092,7.555235000000001,Switzerland
8507297,OEY-DIEMTIGEN,46.659888,7.5791520000000006,Switzerland
8507298,WIMMIS,46.675722,7.635597,Switzerland
8501952,ISELLE DI TRASQUERA,46.207009,8.207014,Italy
8501951,VARZO,46.206309999999995,8.24514,Italy
8501950,PREGLIA,46.145431,8.293044,Italy
8507473,HOHTENN,46.322459,7.764086,Switzerland
8507472,AUSSERBERG,46.312348,7.844167,Switzerland
8507471,EGGERBERG,46.306546000000004,7.881033,Switzerland
8507480,REICHENBACH IM KANDERTAL,46.625122,7.690061999999999,Switzerland
8507481,MULENEN,46.638028000000006,7.6913160000000005,Switzerland
8507476,BLAUSEE-MITHOLZ,46.528964,7.675557,Switzerland
8508207,LANGNAU I.E.,46.939242,7.784197,Switzerland
8508208,TRUBSCHACHEN,46.9217,7.846141,Switzerland
8508210,ESCHOLZMATT,46.915348,7.9363779999999995,Switzerland
8508211,SCHUPFHEIM,46.950647,8.015151,Switzerland
8508212,HASLE LU,46.978152,8.046981,Switzerland
8508213,ENTLEBUCH,46.993693,8.062364,Switzerland
8508215,WOLHUSEN,47.055488000000004,8.079754,Switzerland
8508219,LITTAU,47.053064,8.257113,Switzerland
8508218,MALTERS,47.038584,8.181971,Switzerland
8508217,SCHACHEN LU,47.037973,8.143259,Switzerland
8508216,WERTHENSTEIN,47.057025,8.101863,Switzerland
8508202,KONOLFINGEN,46.880702,7.621366,Switzerland
8508083,BURGDORF BUCHMATT,47.065458,7.608275,Switzerland
8508084,KIRCHBERG-ALCHENFLUH,47.082901,7.581065,Switzerland
8508085,AEFLIGEN,47.095594,7.559253,Switzerland
8508086,UTZENSTORF,47.129537,7.5536270000000005,Switzerland
8508087,WILER,47.152297,7.5559330000000005,Switzerland
8508088,GERLAFINGEN,47.170563,7.565289,Switzerland
8508089,BIBERIST OST,47.180602,7.566191000000001,Switzerland
8508250,SCHWABIS,46.76267,7.6192839999999995,Switzerland
8508251,STEFFISBURG,46.773,7.61516,Switzerland
8508252,LADELI,46.781614000000005,7.609032000000001,Switzerland
8508253,HEIMBERG,46.790874,7.60613,Switzerland
8508254,BRENZIKOFEN,46.818345,7.610745,Switzerland
8508255,OBERDIESSBACH,46.839263,7.617808999999999,Switzerland
8508256,STALDEN I.E.,46.870893,7.6228679999999995,Switzerland
8508260,GROSSHOCHSTETTEN,46.904631,7.634917999999999,Switzerland
8508261,BIGLEN,46.924617,7.626702000000001,Switzerland
8508262,WALKRINGEN,46.947537,7.6188899999999995,Switzerland
8508263,BIGENTHAL,46.965398,7.623374,Switzerland
8508264,SCHAFHAUSEN I.E.,46.994467,7.656756,Switzerland
8508265,HASLE-RUEGSAU,47.016263,7.655322,Switzerland
8508080,OBERBURG,47.039609999999996,7.629341999999999,Switzerland
8508081,BURGDORF STEINHOF,47.052222,7.618519,Switzerland
8518749,LYSS GRIEN,47.072685,7.2965029999999995,Switzerland
8504404,AARBERG,47.044540999999995,7.278693,Switzerland
8504403,BARGEN BE,47.040162,7.26118,Switzerland
8504402,KALLNACH,47.025523,7.235196000000001,Switzerland
8504401,FRASCHELS,46.999126000000004,7.20604,Switzerland
8516444,KERZERS PAPILIORAMA,46.989774,7.199281,Switzerland
8500221,BUREN AN DER AARE,47.138157,7.371242,Switzerland
8500220,DOTZIGEN,47.118672,7.337753999999999,Switzerland
8504415,BUSSWIL BE,47.098684999999996,7.318622,Switzerland
8507284,ENGE IM SIMMENTAL,46.647533,7.417624000000001,Switzerland
8507294,WEISSENBURG,46.659295,7.4759199999999995,Switzerland
8507295,DARSTETTEN,46.658719,7.495691000000001,Switzerland
8507286,RINGOLDINGEN,46.657559,7.524574,Switzerland
8507287,BURGHOLZ,46.666475,7.605422999999999,Switzerland
8507288,EIFELD,46.683869,7.642272999999999,Switzerland
8507299,LATTIGEN BEI SPIEZ,46.691140999999995,7.650269000000001,Switzerland
8507281,GRUBENWALD,46.579811,7.382967999999999,Switzerland
8507291,WEISSENBACH,46.603566,7.374295,Switzerland
8508181,LANGENTHAL SUD,47.205338,7.7801919999999996,Switzerland
8508182,LOTZWIL,47.189494,7.788588000000001,Switzerland
8508174,GUTENBURG,47.181791,7.793291,Switzerland
8508183,MADISWIL,47.167049,7.795792999999999,Switzerland
8508184,LINDENHOLZ,47.154563,7.790469,Switzerland
8508185,KLEINDIETWIL,47.146308000000005,7.790974,Switzerland
8508186,ROHRBACH,47.137263,7.813474,Switzerland
8508187,HUTTWIL,47.11449,7.842607000000001,Switzerland
8504416,BRUGG BE,47.12364,7.278222,Switzerland
8504441,STUDEN BE,47.110438,7.301749000000001,Switzerland
8508004,LYSSACH,47.063761,7.581324,Switzerland
8508003,HINDELBANK,47.049564000000004,7.545411,Switzerland
8508001,SCHONBUHL SBB,47.018941999999996,7.498928,Switzerland
8507005,RUBIGEN,46.89917,7.545367999999999,Switzerland
8516161,BERN WANKDORF,46.967826,7.465478,Switzerland
8508205,SIGNAU,46.919635,7.725463,Switzerland
8508204,BOWIL,46.900048,7.698053999999999,Switzerland
8508203,ZAZIWIL,46.899752,7.662882000000001,Switzerland
8508200,WORB SBB,46.91523,7.564850999999999,Switzerland
8507009,UTTIGEN,46.794311,7.58263,Switzerland
8507008,KIESEN,46.818944,7.575500999999999,Switzerland
8507007,WICHTRACH,46.841612,7.568855,Switzerland
8504108,BERN EUROPAPLATZ,46.94421,7.406117,Switzerland
8504106,BERN BUMPLIZ SUD,46.937487,7.395238000000001,Switzerland
8504105,NIEDERWANGEN,46.925507,7.376463,Switzerland
8504115,THORISHAUS DORF,46.893569,7.3518669999999995,Switzerland
8504113,WUNNEWIL,46.871860999999996,7.280653999999999,Switzerland
8504102,SCHMITTEN FR,46.862941,7.25392,Switzerland
8519133,FRIBOURG/FREIBURG POYA,46.81558,7.156485000000001,Switzerland
8504104,THORISHAUS STATION,46.904626,7.357028999999999,Switzerland
8504117,OBERWANGEN,46.914571,7.362196000000001,Switzerland
8507082,BERN  EUROPAPLATZ,46.943446,7.407469,Switzerland
8504191,FLAMATT DORF,46.8899,7.310519,Switzerland
8504192,NEUENEGG,46.89414,7.299859,Switzerland
8504194,LAUPEN BE,46.9026,7.238019,Switzerland
8508206,EMMENMATT,46.948153999999995,7.747294,Switzerland
8508201,TAGERTSCHI,46.882286,7.580837,Switzerland
8507079,BERN WEISSENBUHL,46.935779,7.430018,Switzerland
8507078,WABERN BEI BERN,46.928663,7.445888,Switzerland
8507093,KEHRSATZ NORD,46.915836,7.466108999999999,Switzerland
8507077,KEHRSATZ,46.908823,7.472360000000001,Switzerland
8507092,BELP STEINBACH,46.895165000000006,7.493092,Switzerland
8507076,BELP,46.888883,7.498636,Switzerland
8507075,TOFFEN,46.858471,7.496033000000001,Switzerland
8507074,KAUFDORF,46.837887,7.501856,Switzerland
8507073,THURNEN,46.813561,7.513877000000001,Switzerland
8507072,BURGISTEIN,46.789438,7.5212259999999995,Switzerland
8507071,SEFTIGEN,46.786846999999995,7.540288,Switzerland
8507070,UETENDORF,46.774924,7.572846000000001,Switzerland
8507094,UETENDORF ALLMEND,46.773121,7.594883,Switzerland
8508266,LUTZELFLUH-GOLDBACH,47.005021,7.6822740000000005,Switzerland
8508267,RAMSEI,46.996877000000005,7.70993,Switzerland
8508268,ZOLLBRUCK,46.975716999999996,7.741300999999999,Switzerland
8508269,NEUMUHLE,46.965647,7.749366,Switzerland
8504489,BERN BUMPLIZ NORD,46.945828999999996,7.389755,Switzerland
8516154,BERN BRUNNEN WESTSIDE,46.944037,7.375278,Switzerland
8504487,ROSSHAUSERN,46.934342,7.296869,Switzerland
8504495,BERN STOCKACKER,46.94636,7.401178,Switzerland
8504488,RIEDBACH,46.941154,7.334049,Switzerland
8507089,SCHWARZENBURG,46.819109999999995,7.342561,Switzerland
8507088,LANZENHAUSERN,46.841931,7.347067999999999,Switzerland
8507095,SCHWARZWASSERBRUCKE,46.862794,7.362375,Switzerland
8507087,MITTELHAUSERN,46.876402,7.367719999999999,Switzerland
8507086,NIEDERSCHERLI,46.886437,7.38807,Switzerland
8507085,GASEL,46.900928,7.400691,Switzerland
8507084,MOOS,46.909985999999996,7.401026,Switzerland
8507083,KONIZ,46.924607,7.414911,Switzerland
8507091,LIEBEFELD,46.930011,7.4189869999999996,Switzerland
8504481,MARIN-EPAGNIER,47.009107,7.010594,Switzerland
8504490,ZIHLBRUCKE,47.009277000000004,7.0305729999999995,Switzerland
8504482,GAMPELEN,47.009364,7.056442,Switzerland
8508272,SUMISWALD-GRUNEN,47.025443,7.737153,Switzerland
8508271,GRUNENMATT,47.0084,7.723903999999999,Switzerland
8508292,HUSWIL,47.128574,7.905862,Switzerland
8508293,ZELL LU,47.136753999999996,7.926381,Switzerland
8508294,GETTNAU,47.140094,7.97014,Switzerland
8508295,WILLISAU,47.122721000000006,7.996716999999999,Switzerland
8508297,MENZNAU,47.083427,8.040887,Switzerland
8516354,WOLHUSEN WEID,47.065545,8.069166000000001,Switzerland
8507389,ZWEILUTSCHINEN,46.6327,7.899699000000001,Switzerland
8505226,GRINDELWALD TERMINAL,46.625508,8.017105,Switzerland
8507381,SCHWENDI BEI GRINDELWALD,46.63047,8.003069,Switzerland
8507382,BURGLAUENEN,46.635909999999996,7.9753289999999994,Switzerland
8507383,LUTSCHENTAL,46.6371,7.948989,Switzerland
8014485,NEUHAUSEN BAD BF,47.682615000000006,8.612186,Switzerland
8518243,BERINGERFELD,47.695372,8.592181,Switzerland
8014484,BERINGEN BAD BF,47.694897,8.574616,Switzerland
8014483,NEUNKIRCH,47.689151,8.495384,Switzerland
8014482,WILCHINGEN-HALLAU,47.679448,8.46386,Switzerland
8014488,TRASADINGEN,47.665238,8.436803999999999,Switzerland
8501281,BLONAY,46.46569,6.895939,Switzerland
8501376,CHAMBY,46.44918,6.913499000000001,Switzerland
8501306,CHAMBY-MUSEE,46.453821999999995,6.9124039999999995,Switzerland
8504466,SISELEN-FINSTERHENNEN,47.03115,7.180389,Switzerland
8504465,LUSCHERZ,47.04803,7.177349,Switzerland
8504464,HAGNECK,47.058279999999996,7.1880690000000005,Switzerland
8504463,TAUFFELEN,47.06651,7.198549000000001,Switzerland
8504475,GEROLFINGEN,47.07498,7.201249000000001,Switzerland
8504474,MORIGEN,47.08565,7.212229,Switzerland
8504462,LATTRIGEN,47.096311,7.21413,Switzerland
8504472,SUTZ,47.10187,7.219419,Switzerland
8504470,IPSACH HERDI,47.11237,7.228928999999999,Switzerland
8504471,IPSACH,47.11737,7.235479,Switzerland
8504469,NIDAU BEUNDEN,47.119820000000004,7.240319,Switzerland
8504461,NIDAU,47.12401,7.242189,Switzerland
8504468,INS DORF,47.00558,7.106808999999999,Switzerland
8504467,BRUTTELEN,47.0206,7.148299000000001,Switzerland
8501266,CHATEAU-DE-BLONAY,46.46835,6.891749000000001,Switzerland
8501265,LA CHIESAZ,46.46951,6.882128999999999,Switzerland
8501264,ST-LEGIER-VILLAGE,46.47102,6.876569,Switzerland
8501280,ST-LEGIER-GARE,46.47053,6.871929,Switzerland
8501263,CHATEAU-D'HAUTEVILLE,46.46847,6.865289,Switzerland
8501262,HAUTEVILLE,46.46626,6.860889,Switzerland
8501260,GILAMONT,46.47142,6.852628999999999,Switzerland
8501282,PRELAZ-SUR-BLONAY,46.46882,6.8979289999999995,Switzerland
8501283,TUSINGE,46.47385,6.896249000000001,Switzerland
8501284,LES CHEVALLEYRES,46.475590000000004,6.898119,Switzerland
8530261,BOIS-DE-CHEXBRES,46.473279999999995,6.901528999999999,Switzerland
8501285,FAYAUX,46.46998,6.907628999999999,Switzerland
8501286,ONDALLAZ-L'ALLIAZ,46.47316,6.913958999999999,Switzerland
8501287,LALLY,46.479209999999995,6.914028999999999,Switzerland
8501288,LES PLEIADES,46.48336,6.909939,Switzerland
8500170,TRAMELAN,47.222813,7.105583,Switzerland
8500162,TRAMELAN-DESSOUS,47.222440999999996,7.112689,Switzerland
8500164,TRAMELAN-CHALET,47.223459999999996,7.09245,Switzerland
8500171,LES REUSSILLES,47.224241,7.083458,Switzerland
8500165,LE PIED-D'OR,47.222038,7.056284,Switzerland
8500172,LA CHAUX-DES-BREULEUX,47.220366999999996,7.025211,Switzerland
8500173,LES BREULEUX,47.210433,7.005169,Switzerland
8500167,LES BREULEUX-EGLISE,47.213112,7.002412,Switzerland
8500174,LE NOIRMONT,47.22368,6.956867,Switzerland
8500191,SAIGNELEGIER,47.254675,6.994515,Switzerland
8500169,MURIAUX,47.243691999999996,6.985478,Switzerland
8500190,LES EMIBOIS,47.232354,6.985326,Switzerland
8500175,LE CREUX-DES-BICHES,47.203464000000004,6.940661,Switzerland
8500176,LE BOECHET,47.194247,6.922111,Switzerland
8500177,LES BOIS,47.176902,6.906184,Switzerland
8500180,LA LARGE-JOURNEE,47.161262,6.8967160000000005,Switzerland
8500181,LA CHAUX-D'ABEL,47.152722999999995,6.898728,Switzerland
8500178,LA FERRIERE,47.14277,6.8943710000000005,Switzerland
8500179,LA CIBOURG,47.122126,6.883663,Switzerland
8500184,LA CHAUX-DE-FONDS-EST,47.103486,6.837175,Switzerland
8500192,LE BEMONT JU,47.263259000000005,7.0142690000000005,Switzerland
8500194,PRE-PETITJEAN,47.277126,7.058826,Switzerland
8500195,LA COMBE,47.284914,7.100121000000001,Switzerland
8500196,BOLLEMENT,47.297168,7.1239539999999995,Switzerland
8500199,COMBE-TABEILLON,47.313803,7.158458,Switzerland
8500188,BONFOL,47.474425,7.154883,Switzerland
8500187,VENDLINCOURT,47.452543,7.15667,Switzerland
8500186,ALLE,47.424138,7.1283460000000005,Switzerland
8504392,LES BRENETS,47.067209999999996,6.707389,Switzerland
8504391,LES FRETES,47.05858,6.7257869999999995,Switzerland
8530260,LE LOCLE LE CHALET,47.055918,6.738986,Switzerland
8504388,LES PONTS-DE-MARTEL,46.999078000000004,6.735271000000001,Switzerland
8530225,LE STAND,47.005013,6.745253,Switzerland
8504387,PETIT-MARTEL,47.010093,6.7551820000000005,Switzerland
8530012,PETIT-MARTEL-EST,47.014587,6.766804,Switzerland
8504386,LES COEUDRES,47.022851,6.780158,Switzerland
8530011,LES COEUDRES-EST,47.028797,6.78953,Switzerland
8504385,LA SAGNE,47.039887,6.802080999999999,Switzerland
8504384,LA SAGNE-EGLISE,47.050897,6.8185199999999995,Switzerland
8504383,LA CORBATIERE,47.069552,6.834919,Switzerland
8504382,LE REYMOND,47.087078000000005,6.844072,Switzerland
8504381,LA CHAUX-DE-FONDS-GRENIER,47.099752,6.8336820000000005,Switzerland
8530713,"BOUDRY, TUILIERE",46.951465,6.84283,Switzerland
8530712,"COLOMBIER NE, LES CHEZARDS",46.960766,6.863801,Switzerland
8530711,COLOMBIER NE ALLEES LITTORAIL,46.968068,6.869508000000001,Switzerland
8530710,"NEUCHATEL, SERRIERES RUAU",46.979737,6.895036999999999,Switzerland
8530709,"NEUCHATEL, CHAMP-BOUGIN",46.984685,6.912416,Switzerland
8530708,"NEUCHATEL, EVOLE",46.989575,6.923528999999999,Switzerland
8503060,ESSLINGEN,47.287859999999995,8.709689,Switzerland
8503070,EMMAT,47.29238,8.701829,Switzerland
8503061,LANGWIES ZH,47.29605,8.694389,Switzerland
8503062,EGG,47.3015,8.689608999999999,Switzerland
8503063,HINTEREGG,47.30573,8.684339,Switzerland
8503072,NEUHAUS BEI HINTEREGG,47.312783,8.674028999999999,Switzerland
8503064,SCHEUREN,47.3226,8.659549,Switzerland
8503065,FORCH,47.325340000000004,8.647969,Switzerland
8503074,NEUE FORCH,47.32581,8.637839,Switzerland
8503068,MAIACHER,47.32817,8.631069,Switzerland
8503066,ZUMIKON,47.33169,8.623809,Switzerland
8503075,WALTIKON,47.33679,8.617019,Switzerland
8503067,ZOLLIKERBERG,47.34605,8.603399000000001,Switzerland
8503077,SPITAL ZOLLIKERBERG,47.34731,8.596799,Switzerland
8503078,WALDBURG,47.34547,8.593019,Switzerland
8591315,"ZURICH, REHALP",47.351027,8.582978,Switzerland
8530811,"ZURICH, BALGRIST",47.354578000000004,8.57502,Switzerland
8530812,"ZURICH, HEGIBACHPLATZ",47.36169,8.560622,Switzerland
8530813,"ZURICH, KREUZPLATZ",47.364875,8.554082000000001,Switzerland
8503059,"ZURICH STADELHOFEN, BAHNHOF",47.36635,8.548129,Switzerland
8591429,"ZURICH, WETLISTRASSE",47.360155,8.568625,Switzerland
8505398,PONTE TRESA,45.96999,8.860479,Switzerland
8505397,CASLANO,45.977740000000004,8.876289,Switzerland
8505396,MAGLIASO,45.981640000000006,8.884119,Switzerland
8505392,MAGLIASO PAESE,45.98341,8.890578999999999,Switzerland
8505395,AGNO,45.99593,8.900919,Switzerland
8505390,SEROCCA,46.008520000000004,8.904569,Switzerland
8505394,BIOGGIO,46.01211,8.908889,Switzerland
8530789,BIOGGIO MOLINAZZO,46.01236,8.914009,Switzerland
8505393,CAPPELLA-AGNUZZO,45.99326,8.924449000000001,Switzerland
8530790,SORENGO LAGHETTO,45.996809999999996,8.933339,Switzerland
8505399,SORENGO,46.00039,8.934828999999999,Switzerland
8505391,LUGANO FLP,46.004490000000004,8.947599,Switzerland
8509179,DISENTIS/MUSTER,46.70497,8.855019,Switzerland
8505180,ACLA DA FONTAUNA,46.69717,8.845778999999999,Switzerland
8505179,SEGNAS,46.691,8.829809,Switzerland
8505178,MUMPE TUJETSCH,46.68212,8.826994000000001,Switzerland
8505177,BUGNEI,46.68235,8.786458999999999,Switzerland
8505176,SEDRUN,46.681059999999995,8.769779,Switzerland
8505175,RUERAS,46.67823,8.754899,Switzerland
8505174,DIENI,46.66993,8.742869,Switzerland
8515296,BRIG BAHNHOFPLATZ,46.319,7.9863789999999995,Switzerland
8501677,BITSCH,46.336059999999996,8.017219,Switzerland
8501676,MOREL,46.3562,8.047139,Switzerland
8501675,BETTEN TALSTATION,46.371159999999996,8.076519000000001,Switzerland
8501674,GRENGIOLS,46.375209999999996,8.091679,Switzerland
8501673,LAX,46.387,8.117149000000001,Switzerland
8501729,FIESCH FERIENDORF,46.39732,8.130769,Switzerland
8501672,FIESCH,46.406285,8.134191,Switzerland
8501671,FURGANGEN-BELLWALD TALSTATION,46.4119,8.152319,Switzerland
8501670,NIEDERWALD,46.43533,8.190209,Switzerland
8501669,BLITZINGEN,46.44466,8.204969,Switzerland
8501668,BIEL (GOMS),46.45505,8.219419,Switzerland
8501667,GLURINGEN,46.46278,8.233908999999999,Switzerland
8501666,RECKINGEN VS,46.46822,8.243879,Switzerland
8501665,MUNSTER VS,46.48536,8.266539,Switzerland
8501664,GESCHINEN,46.49165,8.282109,Switzerland
8501663,ULRICHEN,46.50501,8.308819,Switzerland
8501662,OBERGESTELN,46.51337,8.326239,Switzerland
134,FURKA,46.538321999999994,8.435913000000001,Switzerland
8505163,REALP,46.59863,8.503459,Switzerland
8505164,HOSPENTAL,46.62108,8.570959,Switzerland
8505165,ANDERMATT,46.63689,8.593269,Switzerland
8501636,EYHOLZ,46.29678,7.916299,Switzerland
8505173,TSCHAMUT-SELVA,46.65674,8.709089,Switzerland
8505172,OBERALPPASS,46.66023,8.670499000000001,Switzerland
141,OBERALP,46.652359000000004,8.64444,Switzerland
8505170,NATSCHEN,46.6422,8.6096,Switzerland
8501689,ZERMATT,46.02447,7.748289,Switzerland
8505470,LOCARNO FART,46.17262,8.801829,Switzerland
8505471,LOCARNO S. ANTONIO,46.168875,8.7863,Switzerland
8505473,PONTE BROLLA,46.18564,8.753309,Switzerland
8505491,TEGNA,46.186009999999996,8.742628999999999,Switzerland
8505492,VERSCIO,46.18457,8.729719000000001,Switzerland
8505493,CAVIGLIANO,46.18374,8.721428999999999,Switzerland
8505494,INTRAGNA,46.177659999999996,8.702269,Switzerland
8505499,CAMEDO,46.15487,8.610999000000001,Switzerland
133,CENTOVALLI,46.154371000000005,8.603653,Switzerland
8505580,RE,46.126508,8.538363,Italy
8505584,MALESCO,46.129225,8.498824,Italy
8505594,PRESTINONE,46.132912,8.479678999999999,Italy
8505581,S. MARIA MAGGIORE,46.136594,8.460726,Italy
8505585,DRUOGNO,46.133148999999996,8.433423,Italy
8505597,TRONTANO,46.122690999999996,8.334002,Italy
8505593,MASERA,46.131903,8.323802,Italy
8505590,GAGNONE-ORCESCO,46.128371,8.419167999999999,Italy
8505496,VERDASIO,46.165209999999995,8.649199000000001,Switzerland
8505498,BORGNONE-CADANZA,46.15852,8.622499000000001,Switzerland
8505497,PALAGNEDRA,46.161190000000005,8.630939,Switzerland
8505495,CORCAPOLO,46.16881,8.675139,Switzerland
8505467,S. MARTINO,46.172,8.770369,Switzerland
8505472,SOLDUNO,46.16953,8.777649,Switzerland
8505596,RIBELLASCA,46.154177000000004,8.601550999999999,Italy
8505589,FOLSOGNO-DISSIMO,46.134231,8.558059,Italy
8505578,ZORNASCO,46.12975,8.490812,Italy
8505599,VERIGO,46.121741,8.351516,Italy
8505588,CREGGIO,46.123494,8.323536,Italy
8505586,BUTTOGNO,46.136015,8.445057,Italy
8505587,COIMO,46.126477,8.398819999999999,Italy
8506178,MUNCHWILEN TG,47.47684,8.999149000000001,Switzerland
8506170,MUNCHWILEN PFLEGEHEIM,47.481590000000004,8.991719,Switzerland
8506177,ROSENTAL,47.49228,8.975239,Switzerland
8506176,WANGI,47.4964,8.953308999999999,Switzerland
8506169,WIESENGRUND,47.502179999999996,8.948869,Switzerland
8506175,JAKOBSTAL,47.5089,8.944249000000001,Switzerland
8506174,MATZINGEN,47.52047,8.932959,Switzerland
8506173,WEBEREI MATZINGEN,47.52722,8.922189,Switzerland
8506179,LUDEM,47.541940000000004,8.902349000000001,Switzerland
8506171,FRAUENFELD MARKTPLATZ,47.5542,8.898709,Switzerland
8504086,BULLE,46.618190000000006,7.055028999999999,Switzerland
8504084,VAULRUZ-NORD,46.62397,6.991409,Switzerland
8504182,BELFAUX-VILLAGE,46.8227,7.1102289999999995,Switzerland
8504183,PENSIER,46.841609999999996,7.135289,Switzerland
8504184,COURTEPIN,46.86712,7.1227089999999995,Switzerland
8504185,CRESSIER FR,46.90018,7.149719,Switzerland
8504186,MUNCHENWILER-COURGEVAUX,46.9109,7.116229,Switzerland
8504188,SUGIEZ,46.96413,7.119349000000001,Switzerland
8504079,LA TOUR-DE-TREME RONCLINA,46.60562,7.061439,Switzerland
8504078,LE PAQUIER-MONTBARRY,46.59468,7.059689,Switzerland
8504077,GRUYERES,46.582609999999995,7.073249000000001,Switzerland
8504075,ENNEY,46.5654,7.085239,Switzerland
8504074,VILLARS-SOUS-MONT,46.5438,7.072939,Switzerland
8504073,NEIRIVUE,46.528290000000005,7.061559,Switzerland
8504072,ALBEUVE,46.51793,7.0554190000000006,Switzerland
8504071,LESSOC,46.50738,7.052549000000001,Switzerland
8504070,MONTBOVON,46.485426000000004,7.04214,Switzerland
8504066,VUADENS-SUD,46.61796,7.020169,Switzerland
8504065,VAULRUZ-SUD,46.619209999999995,6.989969,Switzerland
8504064,LA VERRERIE,46.58752,6.924879,Switzerland
8504063,SEMSALES,46.57335,6.9269289999999994,Switzerland
8504062,CHATEL-ST-DENIS,46.527806,6.895795,Switzerland
8504061,REMAUFENS,46.52388,6.876179,Switzerland
8504060,BOSSONNENS,46.52577,6.853229,Switzerland
8504067,LA TOUR-DE-TREME,46.60853,7.064239,Switzerland
8504068,LA TOUR-DE-TREME PARQUETERIE,46.60454,7.070989,Switzerland
8504069,LES MARCHES,46.60297,7.0912690000000005,Switzerland
8504088,BROC-VILLAGE,46.60405,7.098739,Switzerland
8504089,BROC-FABRIQUE,46.60542,7.109329,Switzerland
8501173,ECHALLENS,46.639509999999994,6.6325389999999995,Switzerland
8501174,SUR ROCHE,46.64045,6.6389190000000005,Switzerland
8501178,GRESALEY,46.64317,6.642149000000001,Switzerland
8501175,SUGNENS,46.65485,6.6657589999999995,Switzerland
8501176,FEY,46.67432,6.685078999999999,Switzerland
8501177,BERCHER,46.69288,6.703649,Switzerland
8501172,ASSENS,46.61315,6.620528999999999,Switzerland
8501171,ETAGNIERES,46.60006,6.613028999999999,Switzerland
8587727,LES RIPES,46.59219,6.608059,Switzerland
8501169,CHESEAUX,46.58435,6.6059589999999995,Switzerland
8501170,BEL-AIR LEB,46.57868,6.605529,Switzerland
8501168,VERNAND-CAMARES,46.57094,6.604799000000001,Switzerland
8501166,ROMANEL-SUR-LAUSANNE,46.562470000000005,6.603169,Switzerland
8501165,JOUXTENS-MEZERY,46.54834,6.601689,Switzerland
8501164,CERY-FLEUR-DE-LYS,46.544579999999996,6.605009,Switzerland
8501163,PRILLY-CHASSEUR,46.53965,6.607429,Switzerland
8501162,UNION-PRILLY,46.53472,6.6098490000000005,Switzerland
8501161,MONTETAN,46.53034,6.613179,Switzerland
8501160,LAUSANNE-CHAUDERON,46.52323,6.626059,Switzerland
8501181,LAUSANNE-FLON,46.5208,6.630339,Switzerland
8508151,LANGENTHAL GASWERK,47.2248,7.782178999999999,Switzerland
8594258,LANGENTHAL INDUSTRIE NORD,47.228557,7.786471000000001,Switzerland
8508161,KALTENHERBERG,47.23718,7.799589,Switzerland
8508173,ROGGWIL SCHMITTEN,47.23762,7.815919,Switzerland
8508162,ROGGWIL DORF,47.239340000000006,7.822339,Switzerland
8508168,ROGGWIL BUCHAGERTEN,47.235659999999996,7.831939,Switzerland
8508163,ST. URBAN,47.231759999999994,7.835959,Switzerland
8508164,ST. URBAN ZIEGELEI,47.22732,7.836059,Switzerland
8501568,LE CHATELARD-FRONTIERE,46.053255,6.949878999999999,Switzerland
8501566,LE CHATELARD VS,46.060289000000004,6.9580210000000005,Switzerland
8501565,FINHAUT,46.082404,6.976131,Switzerland
8501564,LE TRETIEN,46.102318,6.997725999999999,Switzerland
8530334,LA MEDETTAZ,46.108834,7.007839,Switzerland
8501563,LES MARECOTTES,46.112312,7.011691000000001,Switzerland
8501562,SALVAN,46.121612,7.0210490000000005,Switzerland
8501561,VERNAYAZ MC,46.130414,7.044607000000001,Switzerland
8530303,LES FUMEAUX,46.110079999999996,7.064608,Switzerland
8774687,VALLORCINE (F),46.033404,6.93399,France
8501394,CHATEAU-D'OEX,46.47467,7.131409,Switzerland
8501393,LA CHAUDANNE-LES MOULINS,46.466052000000005,7.096734,Switzerland
8501392,ROSSINIERE,46.46481,7.083239,Switzerland
8501391,LA TINE,46.46717,7.046569,Switzerland
8501379,LES SCIERNES,46.49146,7.034219,Switzerland
8501378,ALLIERES,46.46982,7.007889,Switzerland
8501387,LES CASES,46.45592,6.9977089999999995,Switzerland
8501386,JOR,46.45467,6.9651190000000005,Switzerland
8501377,LES AVANTS,46.45381,6.943319,Switzerland
8501385,SENDY-SOLLARD,46.44664,6.929069,Switzerland
8501384,SONZIER,46.43905,6.921208999999999,Switzerland
8501375,CHERNEX,46.44592,6.910079,Switzerland
8501374,FONTANIVENT,46.452729999999995,6.902328999999999,Switzerland
8501383,PLANCHAMP,46.45118,6.9009990000000005,Switzerland
8501382,CHATELARD VD,46.44678,6.901139,Switzerland
8501390,BELMONT-SUR-MONTREUX,46.442040000000006,6.906119,Switzerland
8501381,VUARENNES,46.43912,6.910969000000001,Switzerland
8501380,MONTREUX-COLLEGE,46.4361,6.9127089999999995,Switzerland
8501198,CHATEAU-D'OEX LA PALAZ,46.4759,7.143834,Switzerland
8501395,LES GRANGES-GERIGNOZ,46.474165,7.15495,Switzerland
8501388,LES COMBES,46.477470000000004,7.171829,Switzerland
8501396,FLENDRUZ,46.48209,7.186069,Switzerland
8501397,ROUGEMONT,46.488620000000004,7.208958999999999,Switzerland
8501398,SAANEN,46.48857,7.260269,Switzerland
8501399,GSTAAD,46.4748,7.284408999999999,Switzerland
8507270,GRUBEN,46.49054,7.280129,Switzerland
8507271,SCHONRIED,46.504540000000006,7.291099000000001,Switzerland
8507272,SAANENMOSER,46.51761,7.311719,Switzerland
8507273,OESCHSEITE,46.53137,7.352289,Switzerland
8507274,BLANKENBURG,46.5411,7.385319,Switzerland
8507275,STOCKLI,46.51681,7.388399000000001,Switzerland
8507276,ST. STEPHAN,46.50513,7.400519,Switzerland
8507277,MATTEN I.S.,46.49371,7.421639,Switzerland
8507278,BODEN,46.47077,7.435378999999999,Switzerland
8507279,LENK IM SIMMENTAL,46.45858,7.443519,Switzerland
8506305,GOLDACH,47.473797999999995,9.466997000000001,Switzerland
8506304,MORSCHWIL,47.474771000000004,9.414383,Switzerland
8506303,ST. GALLEN ST. FIDEN,47.434540000000005,9.393443,Switzerland
8506128,KREUZLINGEN HAFEN,47.649164,9.181982000000001,Switzerland
8506392,ST. GALLEN HAGGEN,47.40784,9.338139,Switzerland
8506132,TAGERWILEN-GOTTLIEBEN,47.659615,9.132978999999999,Switzerland
8506118,TRIBOLTINGEN,47.662896,9.10876,Switzerland
8506133,ERMATINGEN,47.669999,9.085672,Switzerland
8506134,MANNENBACH-SALENSTEIN,47.673649,9.052804,Switzerland
8506135,BERLINGEN,47.673214,9.022022,Switzerland
8506136,STECKBORN,47.664505,8.981032,Switzerland
8506137,MAMMERN,47.64416,8.914,Switzerland
8506138,ESCHENZ,47.645412,8.876562,Switzerland
8506139,STEIN AM RHEIN,47.656110999999996,8.855019,Switzerland
8506316,AU SG,47.436116,9.641259,Switzerland
8506318,REBSTEIN-MARBACH,47.39264,9.586753999999999,Switzerland
8509401,RUTHI SG,47.286739000000004,9.536056,Switzerland
8509402,SALEZ-SENNWALD,47.241448999999996,9.502335,Switzerland
8509406,SEVELEN,47.125375,9.493835,Switzerland
8506301,ST. GALLEN BRUGGEN,47.407203,9.329654,Switzerland
8506300,ST. GALLEN WINKELN,47.403929,9.30086,Switzerland
8506312,STAAD SG,47.48077,9.536519,Switzerland
8506322,RORSCHACH STADT,47.475592,9.489363,Switzerland
8506200,WATTWIL,47.299479999999996,9.086459,Switzerland
8506297,EBNAT-KAPPEL,47.263659999999994,9.120969,Switzerland
8506298,KRUMMENAU,47.24886,9.167939,Switzerland
8506299,NESSLAU-NEU ST. JOHANN,47.226659999999995,9.197799,Switzerland
8506291,SCHACHEN (HERISAU),47.38556,9.243509,Switzerland
8506292,DEGERSHEIM,47.372479999999996,9.200279,Switzerland
8506293,MOGELSBERG,47.36374,9.142599,Switzerland
8506294,BRUNNADERN-NECKERTAL,47.337309999999995,9.129869,Switzerland
8506201,LICHTENSTEIG,47.31969,9.083169,Switzerland
8506211,ARNEGG,47.442002,9.252024,Switzerland
8506212,HAUPTWIL,47.476867,9.251592,Switzerland
8506213,BISCHOFSZELL STADT,47.492141,9.241479,Switzerland
8506214,SITTERDORF,47.505218,9.248996,Switzerland
8506215,BISCHOFSZELL NORD,47.500415000000004,9.234035,Switzerland
8506216,KRADOLF,47.524722,9.201575,Switzerland
8506106,BURGLEN TG,47.549098,9.149877,Switzerland
8506309,EGNACH,47.543991,9.383017,Switzerland
8516270,ARBON SEEMOOSRIET,47.521195,9.425019,Switzerland
8506308,ARBON,47.510588,9.433358,Switzerland
8516271,STEINACH,47.500956,9.442003,Switzerland
8506307,HORN,47.493179999999995,9.463386999999999,Switzerland
8506393,WITTENBACH,47.46285,9.388539,Switzerland
8506394,ROGGWIL-BERG,47.48559,9.392009,Switzerland
8506395,HAGGENSCHWIL-WINDEN,47.503859999999996,9.358709,Switzerland
8506396,MUOLEN,47.51762,9.337079,Switzerland
8506397,STEINEBRUNN,47.53154,9.349839,Switzerland
8506398,NEUKIRCH-EGNACH,47.5388,9.375829,Switzerland
8506122,UTTWIL,47.586024,9.339702,Switzerland
8506123,KESSWIL,47.595498,9.317427,Switzerland
8506124,GUTTINGEN,47.608753,9.292243,Switzerland
8506125,ALTNAU,47.621368,9.265917,Switzerland
8588122,LANDSCHLACHT,47.628890999999996,9.246948,Switzerland
8506143,MUNSTERLINGEN SPITAL,47.632046,9.236117,Switzerland
8506126,MUNSTERLINGEN-SCHERZINGEN,47.633427000000005,9.227011,Switzerland
8506127,BOTTIGHOFEN,47.640707,9.213104,Switzerland
8506119,KURZRICKENBACH SEEPARK,47.643081,9.196359,Switzerland
8503425,FEUERTHALEN,47.692169,8.645968,Switzerland
8503426,LANGWIESEN,47.683451,8.66232,Switzerland
8503427,SCHLATT TG,47.6795,8.687511,Switzerland
8506148,ST. KATHARINENTAL,47.687563,8.732039,Switzerland
8503428,DIESSENHOFEN,47.685468,8.752299,Switzerland
8503429,SCHLATTINGEN,47.666624,8.770434,Switzerland
8506025,ETZWILEN,47.661145,8.818617,Switzerland
8506205,BAZENHEID,47.410127,9.069059,Switzerland
8506204,LUTISBURG,47.383829,9.070687,Switzerland
8506203,BUTSCHWIL,47.359590999999995,9.07515,Switzerland
8506202,DIETFURT,47.344552,9.07832,Switzerland
8506181,BRONSCHHOFEN,47.475444,9.034677,Switzerland
8506188,BRONSCHHOFEN AMP,47.481266999999995,9.030927,Switzerland
8506182,BETTWIESEN,47.498621,9.02078,Switzerland
8506168,TAGERSCHEN,47.509364,9.024792999999999,Switzerland
8506183,TOBEL-AFFELTRANGEN,47.521301,9.033709,Switzerland
8506184,MARWIL,47.533131,9.069238,Switzerland
8506185,OPPIKON,47.552064,9.062103,Switzerland
8506190,BUSSNANG,47.556084000000006,9.084162,Switzerland
8506108,OBERAACH,47.553319,9.271061999999999,Switzerland
8506107,ERLEN,47.55146,9.226202,Switzerland
8506044,WINTERTHUR TOSS,47.489806,8.70931,Switzerland
8506043,WINTERTHUR WULFLINGEN,47.506436,8.680928999999999,Switzerland
8506042,PFUNGEN,47.516038,8.646633999999999,Switzerland
8506041,EMBRACH-RORBAS,47.520590000000006,8.587067999999999,Switzerland
8503134,BAUMA,47.368837,8.878233,Switzerland
8503135,STEG,47.353852,8.932371,Switzerland
8503136,FISCHENTHAL,47.333303,8.923296,Switzerland
8503137,GIBSWIL,47.31372,8.915511,Switzerland
8503138,WALD ZH,47.272690999999995,8.913999,Switzerland
8503139,TANN-DURNTEN,47.268378000000006,8.852722,Switzerland
8506009,SALAND,47.394211,8.854221,Switzerland
8503405,ZWEIDLEN,47.570448,8.467919,Switzerland
8503413,KAISERSTUHL AG,47.566447,8.419162,Switzerland
8503415,RUMIKON AG,47.565384,8.373666,Switzerland
8503414,MELLIKON,47.568484999999995,8.352511,Switzerland
8506021,DINHARD,47.553345,8.75298,Switzerland
8506022,THALHEIM-ALTIKON,47.569621000000005,8.757643,Switzerland
8506023,OSSINGEN,47.614614,8.724116,Switzerland
8506024,STAMMHEIM,47.634881,8.78875,Switzerland
8506198,TAGERWILEN DORF,47.653721000000004,9.139559,Switzerland
8506197,KREUZLINGEN BERNRAIN,47.642115000000004,9.163203999999999,Switzerland
8506196,LENGWIL,47.625598,9.190283,Switzerland
8506195,SIEGERSHAUSEN,47.610917,9.168258999999999,Switzerland
8506194,BERG,47.58225,9.174527000000001,Switzerland
8506193,KEHLHOF,47.572187,9.169779,Switzerland
8501062,ST-CERGUE,46.448609999999995,6.160359,Switzerland
8501057,LA CHEVRERIE-MONTERET,46.448479999999996,6.183509,Switzerland
8501063,ARZIER,46.45864,6.2116489999999995,Switzerland
8501064,BASSINS,46.460570000000004,6.222309,Switzerland
8501065,LE MUIDS,46.4543,6.215429,Switzerland
8501058,LA JOY-CLINIQUE,46.44635,6.216759,Switzerland
8501056,SUS-CHATEL,46.43849,6.205858999999999,Switzerland
8501066,GENOLIER,46.43625,6.214569,Switzerland
8501067,GIVRINS,46.42885,6.2052190000000005,Switzerland
8501068,TRELEX,46.41372,6.206419,Switzerland
8501069,L'ASSE,46.40182,6.211749,Switzerland
8501053,LA VUARPILLIERE,46.398920000000004,6.217249,Switzerland
8501059,LES PLANTAZ,46.39116,6.229029,Switzerland
8501060,LA CURE,46.46515,6.073569,Switzerland
8501061,LA GIVRINE,46.4546,6.111439,Switzerland
8501055,LES PRALIES,46.45118,6.126869,Switzerland
8519077,ST-CERGUE LES CHESEAUX,46.44688,6.147279,Switzerland
8501100,LE PONT,46.668667,6.324719,Switzerland
8501151,LES CHARBONNIERES,46.664295,6.317044,Switzerland
8501152,LE SECHEY,46.658476,6.306011,Switzerland
8501153,LE LIEU,46.6469,6.283407,Switzerland
8501154,LES ESSERTS-DE-RIVE,46.631984,6.260368,Switzerland
8501155,LE ROCHERAY,46.624457,6.2502629999999995,Switzerland
8501156,LE SOLLIAT-LA GOLISSE,46.614406,6.239022,Switzerland
8501157,LE SENTIER-L'ORIENT,46.605790999999996,6.231426,Switzerland
8530783,CHEZ-LE-MAITRE-ECOLES,46.599461,6.222151,Switzerland
8501159,LE BRASSUS,46.585544,6.213944000000001,Switzerland
8509197,BERGUN/BRAVUOGN,46.63107,9.746749000000001,Switzerland
8509198,PREDA,46.58815,9.777308999999999,Switzerland
8509252,CELERINA,46.51398,9.858439,Switzerland
8509251,SAMEDAN,46.53376,9.873629,Switzerland
8509250,BEVER,46.54991,9.888469,Switzerland
8509199,SPINAS,46.55984,9.845329,Switzerland
181,ALBULATUNNEL,46.574006,9.811342,Switzerland
8509192,TIEFENCASTEL,46.66388,9.572859,Switzerland
8509195,FILISUR,46.675329999999995,9.682289,Switzerland
8509253,ST. MORITZ,46.49797,9.846389,Switzerland
8509369,TIRANO,46.21516,10.166749000000001,Italy
8509364,LE PRESE,46.292159999999996,10.077849,Switzerland
8509361,POSCHIAVO,46.3248,10.054319,Switzerland
8509357,ALP GRUM,46.37475,10.031139,Switzerland
8509356,OSPIZIO BERNINA,46.40876,10.019699000000001,Switzerland
8509255,PONTRESINA,46.49065,9.896069,Switzerland
8509189,THUSIS,46.6982,9.440499,Switzerland
8519370,BERNINA DIAVOLEZZA,46.441790000000005,9.982289,Switzerland
8509368,CAMPOCOLOGNO,46.23322,10.142059,Switzerland
8509073,DAVOS PLATZ,46.791470000000004,9.820729,Switzerland
8509072,DAVOS DORF,46.80972,9.842108999999999,Switzerland
8509071,DAVOS WOLFGANG,46.831959999999995,9.854549,Switzerland
8509070,DAVOS LARET,46.848196,9.873394000000001,Switzerland
8509069,CAVADURLI,46.8704,9.868029,Switzerland
8509068,KLOSTERS PLATZ,46.869209999999995,9.880939,Switzerland
8509067,KLOSTERS DORF,46.88347,9.875328999999999,Switzerland
8509065,SAAS IM PRATTIGAU,46.90765,9.809949000000001,Switzerland
8509064,KUBLIS,46.91428,9.771839,Switzerland
8509063,FIDERIS,46.92237,9.733759,Switzerland
8509062,JENAZ,46.92975,9.718319000000001,Switzerland
8509061,FURNA,46.93978,9.708949,Switzerland
8509060,SCHIERS,46.96799,9.688359,Switzerland
8509059,GRUSCH,46.98049,9.645779,Switzerland
8509058,SEEWIS-PARDISLA,46.976890000000004,9.632539,Switzerland
8509057,MALANS GR,46.97765,9.573719,Switzerland
8509194,ALVANEU,46.67125,9.650729,Switzerland
8509193,SURAVA,46.66686,9.620939,Switzerland
8509188,CAZIS,46.71987,9.432939,Switzerland
8509187,RODELS-REALTA,46.73514,9.432929,Switzerland
8509186,ROTHENBRUNNEN,46.76786,9.419609,Switzerland
8509185,RHAZUNS,46.79968,9.399258999999999,Switzerland
8509184,BONADUZ,46.81029,9.397758999999999,Switzerland
8509183,REICHENAU-TAMINS,46.82366,9.412549,Switzerland
8509182,EMS WERK,46.82864,9.430389,Switzerland
8509181,DOMAT/EMS,46.83314,9.453159,Switzerland
8509180,FELSBERG,46.8431,9.481259,Switzerland
8509050,CHUR WEST,46.849940000000004,9.512719,Switzerland
8509268,SCUOL-TARASP,46.79377,10.286219000000001,Switzerland
8509267,FTAN BARAIGLA,46.78765,10.257989,Switzerland
8509266,ARDEZ,46.773540000000004,10.201049000000001,Switzerland
8509265,GUARDA,46.77152,10.150528999999999,Switzerland
8509264,LAVIN,46.76957,10.110969,Switzerland
8509269,SAGLIAINS,46.7634,10.096579,Switzerland
138,VEREINA,46.808381,9.985688,Switzerland
8509256,LA PUNT CHAMUES-CH,46.57867,9.923328999999999,Switzerland
8509257,MADULAIN,46.58708,9.938349,Switzerland
8509258,ZUOZ,46.59995,9.961459,Switzerland
8509259,S-CHANF,46.611940000000004,9.981819,Switzerland
8509260,CINUOS-CHEL-BRAIL,46.638529999999996,10.021919,Switzerland
8509262,ZERNEZ,46.69767,10.089939,Switzerland
8509263,SUSCH,46.75208,10.079329,Switzerland
8509157,AROSA,46.78329,9.679329,Switzerland
8509156,LITZIRUTI,46.79795,9.703269,Switzerland
8509155,LANGWIES GR,46.81933,9.707139,Switzerland
8509154,PEIST,46.8295,9.671629,Switzerland
8509153,ST. PETER-MOLINIS,46.82915,9.653849000000001,Switzerland
8509152,LUEN-CASTIEL,46.83171,9.613339,Switzerland
8509150,CHUR ALTSTADT,46.8475,9.531158999999999,Switzerland
8509056,LANDQUART RIED,46.9572,9.560869,Switzerland
8509055,IGIS,46.94983,9.564759,Switzerland
8509054,ZIZERS,46.93484,9.559589,Switzerland
8509053,UNTERVAZ-TRIMMIS,46.91898,9.559169,Switzerland
8509006,CHUR WIESENTAL,46.8619,9.531449,Switzerland
8509051,HALDENSTEIN,46.876979999999996,9.533119000000001,Switzerland
8509350,CELERINA STAZ,46.50965,9.865119,Switzerland
8509351,PUNT MURAGL STAZ,46.50735,9.880409,Switzerland
8509352,SUROVAS,46.48563,9.905679,Switzerland
8509353,MORTERATSCH,46.450720000000004,9.940408999999999,Switzerland
8509354,BERNINA SUOT,46.44485,9.969389,Switzerland
8509373,BERNINA LAGALB,46.436609999999995,9.991928999999999,Switzerland
8509358,CAVAGLIA,46.36432,10.044139,Switzerland
8509365,MIRALAGO,46.27312,10.099549,Switzerland
8509366,BRUSIO,46.25931,10.125259,Switzerland
8509363,LI CURT,46.31119,10.063199000000001,Switzerland
8509171,ILANZ,46.77535,9.207439,Switzerland
8509170,CASTRISCH,46.778490000000005,9.233079,Switzerland
8509169,VALENDAS-SAGOGN,46.79179,9.275459,Switzerland
8509168,VERSAM-SAFIEN,46.80738,9.310299,Switzerland
8509167,TRIN,46.81657,9.359519,Switzerland
8509178,SUMVITG-CUMPADIALS,46.724070000000005,8.931329,Switzerland
8509177,RABIUS-SURREIN,46.73257,8.957499,Switzerland
8509176,TRUN,46.742540000000005,8.990439,Switzerland
8509175,TAVANASA-BREIL/BRIGELS,46.75476,9.062429,Switzerland
8509174,WALTENSBURG/VUORZ,46.76956,9.120149000000001,Switzerland
8509173,RUEUN,46.77469,9.145609,Switzerland
8509075,DAVOS FRAUENKIRCH,46.7666,9.799249,Switzerland
8509076,DAVOS GLARIS,46.74557,9.779929,Switzerland
8509077,DAVOS MONSTEIN,46.71591,9.760009,Switzerland
8509078,DAVOS WIESEN,46.69549,9.715839,Switzerland
8509254,PUNT MURAGL,46.509679999999996,9.881189,Switzerland
8509367,CAMPASCIO,46.24467,10.131689,Switzerland
8509359,CADERA,46.34527,10.051369000000001,Switzerland
8504287,FLEURIER,46.904863,6.581574000000001,Switzerland
8504288,BUTTES,46.888346000000006,6.553194,Switzerland
8504218,BOLE,46.969423,6.838374000000001,Switzerland
8504217,CHAMP-DU-MOULIN,46.959912,6.7749880000000005,Switzerland
8504216,NOIRAIGUE,46.95492,6.721799000000001,Switzerland
8504284,LA PRESTA MINES D'ASPHALTE,46.9311,6.6543589999999995,Switzerland
8504285,COUVET,46.922774,6.6349100000000005,Switzerland
8504286,MOTIERS NE,46.911838,6.610041000000001,Switzerland
8501604,RARON,46.306274,7.801511,Switzerland
8501603,GAMPEL-STEG,46.306515000000005,7.747580999999999,Switzerland
8501602,TURTMANN,46.309331,7.699603999999999,Switzerland
8501600,SALGESCH,46.309195,7.578194,Switzerland
8501507,ST-LEONARD,46.251489,7.419567999999999,Switzerland
8501404,EVIONNAZ,46.169253999999995,7.025517999999999,Switzerland
8501405,VERNAYAZ,46.138546000000005,7.038359,Switzerland
8501501,CHARRAT-FULLY,46.126813,7.126475999999999,Switzerland
8501502,SAXON,46.149383,7.1734350000000004,Switzerland
8501503,RIDDES,46.172511,7.217853999999999,Switzerland
8501504,CHAMOSON-ST-PIERRE-DE-CLAGES,46.188836,7.241099,Switzerland
8501505,ARDON,46.208594,7.270946,Switzerland
8501510,CHATEAUNEUF-CONTHEY,46.216109,7.305102000000001,Switzerland
8501572,MARTIGNY-BOURG,46.093268,7.070167,Switzerland
8501573,MARTIGNY-CROIX,46.086618,7.0586020000000005,Switzerland
8501575,BOVERNIER,46.078545,7.082133,Switzerland
8501580,ETIEZ,46.082784000000004,7.162717999999999,Switzerland
8501577,LA DOUAY,46.052586,7.1487110000000005,Switzerland
8501578,ORSIERES,46.027907,7.143625,Switzerland
8503088,ZURICH HB SZU,47.37743,8.539169000000001,Switzerland
8503090,ZURICH SELNAU,47.372077000000004,8.531642,Switzerland
8503091,ZURICH GIESSHUBEL,47.36245,8.521849000000001,Switzerland
8503087,ZURICH SAALSPORTHALLE,47.3574,8.522139,Switzerland
8503086,ZURICH BRUNAU,47.35212,8.526228999999999,Switzerland
8503093,ZURICH MANEGG,47.33837,8.519679,Switzerland
8503094,ZURICH LEIMBACH,47.3346,8.519599000000001,Switzerland
8503095,SOOD-OBERLEIMBACH,47.31957,8.521438999999999,Switzerland
8503096,ADLISWIL,47.3123,8.524159,Switzerland
8503099,SIHLAU,47.30315,8.525249,Switzerland
8503089,WILDPARK-HOFLI,47.29657,8.535649000000001,Switzerland
8503097,LANGNAU-GATTIKON,47.28687,8.544019,Switzerland
8503098,SIHLWALD,47.26827,8.557499,Switzerland
8503051,ZURICH BINZ,47.362629999999996,8.518419,Switzerland
8503052,ZURICH FRIESENBERG,47.364779999999996,8.507939,Switzerland
8503053,ZURICH SCHWEIGHOF,47.364979999999996,8.503049,Switzerland
8503054,ZURICH TRIEMLI,47.36499,8.495199000000001,Switzerland
8503055,UITIKON WALDEGG,47.365829999999995,8.465978999999999,Switzerland
8503056,RINGLIKON,47.36023,8.477378999999999,Switzerland
8503057,UETLIBERG,47.35236,8.487649000000001,Switzerland
8029162,FRIEDRICHSHAFEN STADT,47.653224,9.4739,Germany
8014625,MARKDORF (BADEN),47.716815999999994,9.388639999999999,Germany
8014616,SALEM,47.757795,9.297266,Germany
8014607,UHLDINGEN-MUHLHOFEN,47.736996999999995,9.248419,Germany
8038379,UBERLINGEN,47.769101,9.162853,Germany
8037288,FRIEDRICHSHAFEN FLUGHAFEN,47.672213,9.523714,Germany
8029153,RAVENSBURG,47.784481,9.6061,Germany
8029126,BIBERACH (RISS),48.101845000000004,9.793127,Germany
8029103,ULM HBF,48.399437,9.982227,Germany
8029156,MECKENBEUREN,47.69976,9.558392999999999,Germany
8029149,AULENDORF,47.953052,9.644046000000001,Germany
8029148,BAD SCHUSSENRIED,47.994033,9.668497,Germany
8029159,LOWENTAL,47.661398,9.499241,Germany
8064618,FRIEDRICHSHAFEN LANDRATSAMT,47.657146000000004,9.451988,Germany
8029165,FRIEDRICHSHAFEN-MANZELL,47.664320000000004,9.429155999999999,Germany
8029166,FRIEDRICHSHAFEN-FISCHBACH,47.672481,9.417383000000001,Germany
8084736,FRIEDRICHSHAFEN-KLUFTERN,47.688148999999996,9.409514999999999,Germany
8014624,BERMATINGEN AHAUSEN,47.730488,9.345157,Germany
8064617,UBERLINGEN-NUSSDORF,47.754859,9.188144,Germany
8014601,UBERLINGEN THERME,47.769269,9.145642,Germany
8014599,SIPPLINGEN,47.795587,9.095524000000001,Germany
8014597,LUDWIGSHAFEN (BODENSEE),47.815651,9.053192999999998,Germany
8002371,LINDAU-INSEL,47.544340999999996,9.680469,Germany
8029233,BLAUBEUREN,48.403815,9.791979,Germany
8029234,SCHELKLINGEN,48.371699,9.735267,Germany
8029236,ALLMENDINGEN (D),48.327734,9.722382000000001,Germany
8029238,EHINGEN (DONAU),48.285677,9.72434,Germany
8029240,ROTTENACKER,48.234844,9.694364,Germany
8029241,MUNDERKINGEN,48.237871999999996,9.645671,Germany
8029246,RIEDLINGEN,48.149595,9.484927,Germany
8029249,HERBERTINGEN,48.063945000000004,9.414603999999999,Germany
8029250,MENGEN,48.053701000000004,9.336547,Germany
8029254,SIGMARINGEN,48.086984,9.221851,Germany
8029259,BEURON,48.048790999999994,8.97189,Germany
8029260,FRIDINGEN (B TUTTLINGEN),48.031822,8.936060000000001,Germany
8029230,HERRLINGEN,48.417730999999996,9.897730000000001,Germany
8029243,RECHTENSTEIN,48.239993,9.550904,Germany
8029228,BLAUSTEIN,48.414596,9.919326,Germany
8029253,SIGMARINGENDORF,48.068901000000004,9.260935,Germany
8029261,MUHLHEIM (B TUTTLINGEN),48.029212,8.885643,Germany
8029235,SCHMIECHEN,48.362356,9.72038,Germany
8029258,HAUSEN I TAL,48.080408,9.027574000000001,Germany
8029232,GERHAUSEN,48.39972,9.806227,Germany
8072031,IMMENDINGEN ZIMMERN,47.932876,8.714051,Germany
8062343,TUTTLINGEN NORD,47.992605,8.823737,Germany
8029263,NENDINGEN(B TUTTLINGEN),48.009577,8.854047999999999,Germany
8029262,STETTEN(DONAU),48.022814000000004,8.872354,Germany
8029012,TUTTLINGEN ZENTRUM,47.985615,8.809435,Germany
8029227,ULM-SOFLINGEN,48.402726,9.958849,Germany
8029318,TUBINGEN HBF,48.515811,9.055407,Germany
8029309,REUTLINGEN HBF (D),48.496078999999995,9.209116,Germany
8029338,MOSSINGEN,48.404309000000005,9.04653,Germany
8029341,HECHINGEN,48.359601,8.968775,Germany
8029343,BISINGEN,48.31277,8.921035,Germany
8029345,BALINGEN (WURTT),48.278469,8.850307,Germany
8029350,ALBSTADT-EBINGEN,48.21029,9.026962,Germany
8029353,STORZINGEN,48.134881,9.127085000000001,Germany
8029184,HERBERTINGEN ORT,48.05357,9.433397,Germany
8029186,BAD SAULGAU,48.013593,9.501083,Germany
8029189,ALTSHAUSEN,47.930710999999995,9.551478,Germany
8029351,STRASSBERG-WINTERLINGEN,48.178746999999994,9.087717999999999,Germany
8029109,ULM-DONAUTAL,48.36634,9.940355,Germany
8029112,ERBACH (WURTT),48.325902,9.894833,Germany
8029115,LAUPHEIM WEST,48.230008000000005,9.847854,Germany
8029123,SCHEMMERBERG,48.189232000000004,9.829031,Germany
8029125,WARTHAUSEN,48.129915000000004,9.801661,Germany
8068634,BIBERACH (RISS) SUD,48.087018,9.803236,Germany
8029321,KIEBINGEN,48.479369,8.973745,Germany
8029322,ROTTENBURG (NECKAR),48.472429999999996,8.935547999999999,Germany
8029715,THALFINGEN(B ULM),48.432982,10.047853,Germany
8029712,LANGENAU (WURTT),48.493333,10.125988000000001,Germany
8029709,SONTHEIM-BRENZ,48.559324,10.284863,Germany
8029706,GIENGEN (BRENZ),48.620022999999996,10.236994000000001,Germany
8029705,HERBRECHTINGEN,48.625634000000005,10.170334,Germany
8035252,HEIDENHEIM-VOITHWERK,48.669482,10.156077,Germany
8029702,HEIDENHEIM,48.680170000000004,10.156642,Germany
8029699,KONIGSBRONN,48.739518,10.116135,Germany
8029698,OBERKOCHEN,48.782359,10.107654,Germany
8029549,AALEN,48.841013000000004,10.096271,Germany
8029697,UNTERKOCHEN,48.815008,10.126493,Germany
8029700,ITZELBERG,48.730681,10.1363,Germany
8029326,MUHLEN(B HORB),48.449940999999995,8.726802000000001,Germany
8029325,EYACH,48.446288,8.783101,Germany
8029324,BIERINGEN(B HORB),48.449028999999996,8.860914999999999,Germany
8029323,BAD NIEDERNAU,48.460766,8.896533,Germany
8029163,FRIEDRICHSHAFEN-HAFEN,47.651208000000004,9.482819000000001,Germany
8045013,STAHRINGEN,47.787663,8.976275,Germany
8029167,ERISKIRCH,47.628402,9.526672,Germany
8029168,LANGENARGEN,47.599491,9.544837,Germany
8029170,KRESSBRONN,47.594239,9.598854,Germany
8002375,NONNENHORN,47.575117999999996,9.612675999999999,Germany
8002374,WASSERBURG (BODENSEE),47.571899,9.639062,Germany
8002373,ENZISWEILER,47.564142,9.665429,Germany
8002370,LINDAU-AESCHACH,47.55962,9.684660000000001,Germany
8029151,MOCHENWANGEN,47.872571,9.637901,Germany
8029169,FRIEDRICHSHAFEN OST,47.651706,9.502018,Germany
8029711,RAMMINGEN (WURTT),48.512467,10.191084,Germany
8029710,NIEDERSTOTZINGEN,48.532604,10.236460000000001,Germany
8029708,BERGENWEILER,48.576297,10.272879,Germany
8029707,HERMARINGEN,48.594584000000005,10.258331,Germany
8029701,HEIDENHEIM-SCHNAITHEIM,48.708281,10.158760000000001,Germany
8029713,UNTERELCHINGEN,48.452989,10.100191,Germany
8029714,OBERELCHINGEN,48.447573,10.083024,Germany
8029716,ULM OST,48.407159,9.994631,Germany
8029433,DEISSLINGEN MITTE,48.108374,8.611586,Germany
8029434,TROSSINGEN BAHNHOF,48.087664000000004,8.585154,Germany
8071996,VILLINGEN-SCH. HAMMERSTATT,48.060175,8.546922,Germany
8029436,SCHWENNINGEN (NECKAR),48.05977,8.535862,Germany
8080306,VILLINGEN-SCH. ZOLLHAUS,48.040888,8.505997,Germany
8072023,VILLINGEN-SCH. MARBACH OST,48.033683,8.475883999999999,Germany
8072025,VILLINGEN-SCH. EISSTADION,48.052772,8.528553,Germany
8029335,DUSSLINGEN,48.452408,9.058444,Germany
8088502,KORNTAL-GYMNASIUM,48.831057,9.112353,Germany
8088503,MUNCHINGEN RUHRBERG,48.849796000000005,9.095853,Germany
8049101,MUNCHINGEN,48.855236,9.096217999999999,Germany
8049102,SCHWIEBERDINGEN,48.870579,9.071396,Germany
8049103,HEMMINGEN,48.867783,9.031696,Germany
8049104,HEIMERDINGEN,48.851473,8.985433,Germany
8089127,RUDERSBERG-OBERNDORF,48.891323,9.542613000000001,Germany
8088494,RUDERSBERG NORD,48.887613,9.534161,Germany
8042307,RUDERSBERG,48.881864,9.530716,Germany
8042306,SCHLECHTBACH (D),48.872549,9.526361,Germany
8042305,MICHELAU(WURTT),48.861708,9.53557,Germany
8042304,MIEDELSBACH-STEINENBERG,48.84362,9.53913,Germany
8088493,HAUBERSBRONN-MITTE,48.830873,9.549000999999999,Germany
8042303,HAUBERSBRONN (D),48.824329999999996,9.550072,Germany
8042302,SCHORNDORF-HAMMERSCHLAG,48.807605,9.534566,Germany
8042810,DETTENHAUSEN,48.606705,9.093437,Germany
8042809,WEIL IM SCHONBUCH UNTERE HALDE,48.62044,9.062796,Germany
8042808,WEIL IM SCHONBUCH ROTE,48.62095,9.049897999999999,Germany
8042807,WEIL IM SCHONBUCH TROPPEL,48.620216,9.042722,Germany
8042806,HOLZGERLINGEN-BUCH,48.626696,9.024768,Germany
8042805,HOLZGERLINGEN BAHNHOF,48.637525,9.006945,Germany
8042804,HOLZGERLINGEN-NORD,48.644557,9.008542,Germany
8042803,BOBLINGEN ZIMMERSCHLAG,48.670456,9.035225,Germany
8042802,BOBLINGEN HEUSTEIGSTR.,48.675633000000005,9.025771,Germany
8042801,BOBLINGEN SUD,48.677236,9.010508999999999,Germany
8042800,BOBLINGEN DANZIGER STR.,48.678962,8.997202,Germany
8051204,NEUFFEN,48.558556,9.374079,Germany
8051203,LINSENHOFEN,48.579867,9.371531,Germany
8088504,FRICKENHAUSEN-KELTERSTRASSE,48.592057000000004,9.364479,Germany
8051202,FRICKENHAUSEN,48.595369,9.35801,Germany
8051228,NURTINGEN-ROSSDORF,48.608573,9.345713,Germany
8051247,NURTINGEN VORSTADT,48.620334,9.340072,Germany
8029299,NURTINGEN,48.627997,9.342647999999999,Germany
8508152,HARD-MUMENTHAL,47.23381,7.774878999999999,Switzerland
8508193,AARWANGEN VORSTADT,47.23749,7.771309,Switzerland
8508153,AARWANGEN,47.240875,7.7696190000000005,Switzerland
8508154,AARWANGEN SCHLOSS,47.24518,7.763619,Switzerland
8508155,BANNWIL,47.24438,7.740359,Switzerland
8508157,HOLZHAUSERN,47.25816,7.710399000000001,Switzerland
8508158,SCHARNAGELN,47.2631,7.700789,Switzerland
8508159,NIEDERBIPP DORF,47.26582,7.695139,Switzerland
8518690,NIEDERBIPP INDUSTRIE,47.27864,7.703169,Switzerland
8500289,BUCHLI,47.26363,7.678389,Switzerland
8500288,OBERBIPP,47.259736,7.6610119999999995,Switzerland
8500287,WIEDLISBACH,47.25288,7.646099,Switzerland
8500286,ATTISWIL,47.2464,7.613878999999999,Switzerland
8500285,FLUMENTHAL,47.23916,7.596678999999999,Switzerland
8500283,RIEDHOLZ,47.23103,7.572678999999999,Switzerland
8500275,BEI DEN WEIHERN,47.228390000000005,7.566589,Switzerland
8500274,FELDBRUNNEN,47.220659999999995,7.555859,Switzerland
8500273,ST. KATHARINEN,47.21611,7.549789,Switzerland
8500272,SOLOTHURN STERNEN,47.2123,7.5453589999999995,Switzerland
8500280,SOLOTHURN BASELTOR,47.209990000000005,7.541899000000001,Switzerland
8101243,SCHAAN-VADUZ,47.168293,9.5078,Liechtenstein
8102352,LUSTENAU,47.450342,9.667113,Austria
8503116,UZNACH,47.224283,8.98069,Switzerland
8503115,SCHMERIKON,47.225159999999995,8.943382000000001,Switzerland
8503284,BIBERBRUGG,47.15637,8.722699,Switzerland
8503113,BLUMENAU,47.223671,8.842405,Switzerland
8503282,ROTHENTHURM,47.10579,8.674659,Switzerland
8503286,SAMSTAGERN,47.19154,8.685969,Switzerland
8503117,KALTBRUNN,47.217983000000004,9.022431,Switzerland
8503119,SCHANIS,47.157657,9.043975999999999,Switzerland
8509418,MUHLEHORN,47.11784,9.173017,Switzerland
8509417,MURG,47.113175,9.215041000000001,Switzerland
8509415,MOLS,47.112991,9.276816,Switzerland
8503118,BENKEN SG,47.204458,9.008654,Switzerland
8503292,ALTMATT,47.13165,8.696119,Switzerland
8503290,BIBEREGG,47.093309999999995,8.669129,Switzerland
8503281,SATTEL-AEGERI,47.07985,8.627229,Switzerland
8503280,STEINERBERG,47.0522,8.585258999999999,Switzerland
8503289,FREIENBACH SOB,47.2042,8.759379,Switzerland
8503295,WILEN BEI WOLLERAU,47.19758,8.734309,Switzerland
8503288,WOLLERAU,47.19543,8.724999,Switzerland
8503294,RIEDMATT SZ,47.19675,8.712009,Switzerland
8503285,SCHINDELLEGI-FEUSISBERG,47.1764,8.709369,Switzerland
8503283,EINSIEDELN,47.12858,8.744469,Switzerland
8503293,GRUENFELD,47.19828,8.687279,Switzerland
8503287,BURGHALDEN,47.20867,8.692689,Switzerland
8508309,BRUNIG-HASLIBERG,46.75776,8.138649000000001,Switzerland
8508310,LUNGERN,46.78634,8.163559,Switzerland
8508311,KAISERSTUHL OW,46.81436,8.175509,Switzerland
8508312,GISWIL,46.836529999999996,8.186309,Switzerland
8508313,SACHSELN,46.87096,8.238299000000001,Switzerland
8508314,SARNEN,46.89459,8.247479,Switzerland
8508317,ALPNACHSTAD,46.95503,8.277828999999999,Switzerland
8508306,BRIENZWILER,46.74565,8.090629,Switzerland
8508305,BRIENZ,46.75484,8.038939,Switzerland
8508329,BRIENZ WEST,46.75731,8.020359,Switzerland
8508304,EBLIGEN,46.75262,7.990028999999999,Switzerland
8508303,OBERRIED AM BRIENZERSEE,46.73655,7.958919,Switzerland
8508302,NIEDERRIED,46.71642,7.928669,Switzerland
8508301,RINGGENBERG,46.70386,7.899808999999999,Switzerland
8516351,KRIENS MATTENHOF,47.02661,8.302369,Switzerland
8508319,HORW,47.01747,8.306969,Switzerland
8508318,HERGISWIL NW,46.98261,8.310169,Switzerland
8508390,STANSSTAD,46.976259999999996,8.336339,Switzerland
8508391,STANS,46.95832,8.366739,Switzerland
8508392,DALLENWIL,46.93377,8.392059,Switzerland
8508384,NIEDERRICKENBACH STATION,46.92783,8.396189,Switzerland
8508394,WOLFENSCHIESSEN,46.90775,8.394679,Switzerland
8508396,GRAFENORT,46.8706,8.372399,Switzerland
8508399,ENGELBERG,46.819520000000004,8.402639,Switzerland
8508321,LUZERN ALLMEND/MESSE,47.03508,8.303309,Switzerland
8508320,HERGISWIL MATT,46.994073,8.312586,Switzerland
8508327,EWIL MAXON,46.86072,8.218669,Switzerland
8508323,SARNEN NORD,46.90018,8.249108999999999,Switzerland
8508316,ALPNACH DORF,46.94064,8.275239,Switzerland
8774200,MODANE,45.193095,6.658469,France
8774236,SAINT-MICHEL-VALLOIRE,45.216859,6.471956,France
8774232,SAINT-JEAN-DE-MAURIENNE-ARVAN,45.277792,6.354571,France
8774130,SAINT-AVRE-LA-CHAMBRE,45.352844,6.303064,France
8774100,CHAMBERY-CHALLES-LES-EAUX,45.571498,5.919756,France
8768600,PARIS GARE DE LYON,48.844840999999995,2.374072,France
8771304,DIJON,47.322913,5.026128,France
8748100,NANTES,47.217089,-1.541474,France
8747100,RENNES,48.103178,-1.672339,France
8739600,LE MANS,47.995288,0.192168,France
8739370,MASSY-TGV,48.725775,2.2588529999999998,France
8747409,QUIMPER,47.994764,-4.092173000000001,France
8747600,LORIENT,47.755373999999996,-3.366157,France
8747620,AURAY,47.680239,-2.999479,France
8747660,VANNES,47.665259999999996,-2.7525630000000003,France
8747130,REDON,47.651973,-2.089198,France
8748400,ANGERS-ST-LAUD,47.464086,-0.558528,France
8747400,BREST (F),48.387805,-4.479815,France
8747433,MORLAIX,48.578114,-3.832671,France
8747320,GUINGAMP,48.555496000000005,-3.14331,France
8747300,SAINT-BRIEUC,48.507402,-2.764944,France
8747840,LAVAL,48.076404,-0.761088,France
8774637,CLUSES (HAUTE-SAVOIE),46.061296999999996,6.58299,France
8774643,SALLANCHES-COMBLOUX-MEGEVE,45.935643,6.636486,France
8774647,ST-GERVAIS-LES-BAINS-LE-FAYET,45.906665000000004,6.701860000000001,France
8774630,LA ROCHE-SUR-FORON,46.067363,6.303755000000001,France
8774620,PRINGY (HAUTE-SAVOIE),45.939585,6.123364,France
8774600,ANNECY,45.902121,6.121629,France
8774113,AIX-LES-BAINS-LE-REVARD,45.688196999999995,5.908983999999999,France
8774567,EVIAN-LES-BAINS,46.397771,6.5777600000000005,France
8774564,THONON-LES-BAINS,46.368955,6.481974,France
8774179,BOURG-SAINT-MAURICE,45.618829,6.771667999999999,France
8774177,LANDRY,45.574193,6.7335270000000005,France
8774176,AIME-LA-PLAGNE,45.554204,6.648395,France
8774172,MOUTIERS-SALINS-BRIDES-LES-BAI,45.486692,6.531452,France
8774164,ALBERTVILLE,45.673624,6.383619,France
8711300,PARIS-EST,48.876976,2.35912,France
8717192,CHAMPAGNE-ARDENNE TGV,49.21439,3.994251,France
8727100,PARIS-NORD,48.88089,2.354931,France
8727149,AEROPORT CHARLES-DE-GAULLE TGV,49.004048,2.571133,France
8718201,COLMAR,48.072474,7.346546000000001,France
8730082,BELFORT-MONTBELIARD TGV,47.58594,6.897634,France
8730086,BESANCON FRANCHE-COMTE TGV,47.307562,5.952675,France
8776302,VALENCE TGV RHONE-ALPES SUD,44.991319,4.978927,France
8731901,AIX-EN-PROVENCE TGV,43.455171,5.3172239999999995,France
8772568,MACON,46.302941,4.824803,France
8777500,NIMES,43.832401000000004,4.366172,France
8777300,MONTPELLIER SAINT-ROCH,43.604533,3.880803,France
8719203,METZ VILLE,49.109381,6.177669,France
8714100,NANCY,48.689797999999996,6.174096,France
8714732,MEUSE TGV,48.978328999999995,5.2717339999999995,France
8775500,TOULON,43.128411,5.9296,France
8775544,LES ARCS,43.455579,6.482480000000001,France
8775752,ST-RAPHAEL-VALESCURE,43.422771000000004,6.770123,France
8775762,CANNES,43.554196999999995,7.020325,France
8775767,ANTIBES,43.585678,7.119464999999999,France
8772500,CHALON-SUR-SAONE,46.781739,4.843393,France
8771354,BEAUNE,47.023003,4.848832,France
8717100,REIMS,49.259244,4.024156,France
8721405,SELESTAT,48.260295,7.443039,France
8714400,EPINAL,48.178008,6.441381,France
8714445,REMIREMONT,48.016433,6.599071,France
8714115,LUNEVILLE,48.587848,6.497134,France
8721501,SARREBOURG,48.738594,7.052033,France
8721222,SAVERNE,48.744862,7.362095,France
8714401,SAINT-DIE-DES-VOSGES,48.281918,6.948236,France
8717227,RETHEL,49.504282,4.369756,France
8717200,CHARLEVILLE-MEZIERES,49.767891999999996,4.725527,France
8717225,SEDAN,49.695122,4.930118,France
8717400,CHALONS-EN-CHAMPAGNE,48.95541,4.348892,France
8717427,VITRY-LE-FRANCOIS,48.71764,4.587414,France
8717504,BAR-LE-DUC,48.77361,5.167259,France
8769600,NEVERS,46.987714000000004,3.150199,France
8757620,BOURGES,47.094311,2.394386,France
8757600,VIERZON,47.226725,2.059947,France
8754316,SALBRIS,47.425176,2.047479,France
8754301,AUBRAIS - ORLEANS,47.926722,1.9062849999999998,France
8754700,PARIS-AUSTERLITZ,48.841027000000004,2.366396,France
8748760,SAUMUR-RIVE-DROITE,47.26886,-0.071562,France
8757124,ST-PIERRE-DES-CORPS,47.385542,0.723888,France
8769632,MOULINS SUR ALLIER,46.561253,3.339264,France
8773220,SAINT-GERMAIN-DES-FOSSES,46.209244,3.4305239999999997,France
8772680,ROANNE,46.039339,4.06304,France
8772202,LYON PERRACHE,45.748364,4.8253010000000005,France
8722326,LILLE-EUROPE,50.639294,3.076448,France
8731388,TGV HAUTE-PICARDIE,49.623045,2.802566,France
8711184,MARNE-LA-VALLEE-CHESSY TGV,48.870272,2.782876,France
8770397,NIMES PONT DU GARD,43.816821999999995,4.507701,France
8768888,MONTPELLIER SUD DE FRANCE,43.595642,3.925556,France
8734201,ARRAS,50.286889,2.78183,France
8728600,LILLE-FLANDRES,50.637488,3.071128,France
8734500,DOUAI,50.371895,3.09105,France
8741301,LE HAVRE,49.492734000000006,0.125471,France
8741101,ROUEN RIVE DROITE,49.449042999999996,1.094112,France
8738150,MANTES-LA-JOLIE,48.98928,1.70298,France
8739300,VERSAILLES-CHANTIERS,48.795182000000004,2.136109,France
8739357,MASSY-PALAISEAU-GRANDE-CRE,48.725426,2.2596380000000003,France
8758100,BORDEAUX-ST-JEAN,44.826485999999996,-0.55592,France
8758300,ANGOULEME,45.654018,0.164691,France
8757500,POITIERS,46.582238000000004,0.33305999999999997,France
8714210,LORRAINE TGV,48.94741,6.169689,France
8754524,JUVISY,48.689508000000004,2.383238,France
8769410,LE CREUSOT-MONTCEAU-MONTCHANI,46.765367,4.500068,France
8772147,TARARE,45.889753000000006,4.4390339999999995,France
8773200,VICHY,46.127016,3.430683,France
8773405,RIOM - CHATEL-GUYON,45.889835999999995,3.1206509999999996,France
8773400,CLERMONT-FERRAND,45.778674,3.101019,France
8776146,TOURNON-CENTRE,45.061776,4.83321,France
8775108,MARSEILLE-BLANCARDE,43.295654,5.4063419999999995,France
8775605,NICE-VILLE,43.704824,7.261766000000001,France
8776149,SAINT-PERAY,44.947807,4.850544,France
8774300,BOURG-EN-BRESSE,46.199927,5.214771,France
8776178,CREST,44.730081,5.01599,France
8776184,DIE,44.758159,5.363151,France
8776330,VEYNES-DEVOLUY,44.531963,5.8165309999999995,France
8776300,GAP,44.563812,6.085697,France
8776342,CHORGES,44.545778000000006,6.271767,France
8776346,EMBRUN,44.567181,6.496862999999999,France
8776350,MONTDAUPHIN-GUILLESTRE,44.674589000000005,6.615514,France
8776355,L'ARGENTIERE-LES-ECRINS,44.790951,6.556189,France
8776360,BRIANCON,44.890017,6.632828999999999,France
8776187,LUC-EN-DIOIS,44.613552,5.454518,France
8769622,FOURCHAMBAULT,47.018969,3.087368,France
8769621,POUGUES-LES-EAUX,47.076782,3.094027,France
8769619,LA CHARITE-SUR-LOIRE,47.179947,3.024181,France
8769614,COSNE-SUR-LOIRE,47.415151,2.9316869999999997,France
8769608,BRIARE,47.64645,2.733726,France
8768429,GIEN,47.699145,2.636364,France
8768427,NOGENT-SUR-VERNISSON,47.852779999999996,2.737548,France
8768400,MONTARGIS,48.006679,2.743048,France
8768412,NEMOURS-SAINT-PIERRE,48.267638,2.685809,France
8768666,PARIS-BERCY,48.839132,2.382891,France
8769616,TRACY SANCERRE,47.337705,2.8803520000000002,France
8769617,POUILLY-SUR-LOIRE,47.282168,2.966067,France
8769626,SAINCAIZE,46.931273,3.072103,France
8777320,SETE,43.412808,3.696536,France
8778127,AGDE,43.317494,3.4658019999999996,France
8778100,BEZIERS,43.336180999999996,3.218798,France
8778110,NARBONNE,43.190402,3.006011,France
8778400,PERPIGNAN,42.695941999999995,2.8793990000000003,France
8776290,LYON SAINT-EXUPERY TGV,45.720907000000004,5.075826,France
8776400,MONTELIMAR,44.559365,4.7447,France
8776510,ORANGE,44.137553999999994,4.8193980000000005,France
8776500,AVIGNON CENTRE,43.971065,4.698971,France
8775365,ARLES,43.685007,4.63243,France
8775300,MIRAMAS,43.580939,4.999501,France
8772570,MACON-LOCHE TGV,46.282792,4.778594,France
8772600,SAINT-ETIENNE CHATEAUCREUX,45.443412,4.399307,France
8771313,MONTBARD,47.618590999999995,4.33626,France
8771800,BESANCON VIOTTE,47.247327,6.021998,France
8771341,DOLE,47.096334999999996,5.488103,France
8761528,CARCASSONNE,43.218189,2.351797,France
8761100,TOULOUSE-MATABIAU,43.611406,1.4539389999999999,France
8728654,TOURCOING,50.716575,3.168172,France
8771883,MOUCHARD,46.976814000000005,5.799451,France
8774335,NURIEUX,46.18401,5.5326319999999996,France
8764550,NEUSSARGUES,45.125155,2.979147,France
8773487,MASSIAC - BLESLE,45.253769,3.196555,France
8773425,ARVANT,45.365383,3.3106769999999996,France
8773424,BRASSAC-LES-MINES-STE-FLORINE,45.414091,3.330164,France
8773420,ISSOIRE,45.544063,3.2541599999999997,France
8778166,MAGALAS,43.467444,3.229726,France
8778160,BEDARIEUX,43.608694,3.149566,France
8778158,LE BOUSQUET-D'ORB,43.691239,3.168956,France
8778154,CEILHES-ROQUEREDONDE,43.812219,3.155118,France
8778345,TOURNEMIRE-ROQUEFORT,43.969901,3.016497,France
8778343,ST-ROME-DE-CERNON,44.013982,2.9673689999999997,France
8778342,ST-GEORGES-DE-LUZENCON,44.066573999999996,2.983591,France
8778300,MILLAU,44.102481,3.074496,France
8778336,SEVERAC-D'AVEYRON,44.324652,3.056947,France
8778334,CAMPAGNAC-ST-GENIEZ,44.421955,3.066396,France
8778332,BANASSAC-LA-CANOURGUE,44.447586,3.1961310000000003,France
8778328,MARVEJOLS,44.544683,3.281078,France
8778326,AUMONT-AUBRAC,44.718167,3.283546,France
8778324,ST-CHELY-D'APCHER,44.801737,3.270695,France
8778317,SAINT-FLOUR - CHAUDES-AIGUES,45.035219,3.1050470000000003,France
8757100,TOURS,47.389456,0.693788,France
8757449,CHENONCEAUX,47.330653999999996,1.066185,France
8757485,MONTRICHARD,47.343744,1.1717879999999998,France
8757489,ST-AIGNAN-NOYERS,47.286892,1.3839290000000002,France
8757686,SELLES-SUR-CHER,47.281881,1.5463280000000001,France
8757687,GIEVRES,47.278898,1.6679119999999998,France
8757688,VILLEFRANCHE-SUR-CHER,47.294984,1.7679610000000001,France
8769642,DOMPIERRE SEPT FONS,46.526342,3.674964,France
8769486,GILLY-SUR-LOIRE,46.537162,3.7821910000000005,France
8769469,DIGOIN,46.485296999999996,3.9874410000000005,France
8769468,PARAY-LE-MONIAL,46.447163,4.11371,France
8769473,LA CLAYETTE - BAUDEMONT,46.28815,4.298508999999999,France
8769477,CHAUFFAILLES,46.207587,4.345496,France
8772186,LAMURE-SUR-AZERGUES,46.061162,4.492275,France
8772178,BOIS-D'OINGT - LEGNY,45.906554,4.575156,France
8772142,LOZANNE,45.854261,4.681342,France
8772189,POULE,46.138577000000005,4.459776000000001,France
8757447,BLERE-LA-CROIX,47.337944,0.987775,France
8776181,SAILLANS,44.694708,5.196597,France
8776124,LIVRON,44.779852000000005,4.830099,France
8776165,ROMANS - BOURG-DE-PEAGE,45.048238,5.05206,France
8774732,MOIRANS,45.323907,5.563798,France
8776175,TULLINS-FURES,45.30141,5.492584,France
8776172,VINAY,45.206390999999996,5.411142,France
8776171,ST-MARCELLIN (ISERE),45.150749,5.323743,France
8774118,MONTMELIAN,45.503040999999996,6.043143,France
8774749,PONTCHARRA-SUR-BREDA-ALLEVARD,45.434128,6.0076540000000005,France
8774740,GRENOBLE UNIVERSITES-GIERES,45.185024,5.7847029999999995,France
8776168,SAINT-HILAIRE-ST-NAZAIRE,45.071489,5.244452,France
8774614,RUMILLY,45.862987,5.948174,France
8774611,ALBENS,45.785841999999995,5.948523000000001,France
8774610,GRESY-SUR-AIX,45.724579,5.9220559999999995,France
8776430,PIERRELATTE,44.374857,4.704005,France
8776435,BOLLENE-LA-CROISIERE,44.271854,4.707885,France
8774728,VOIRON,45.364144,5.59466,France
8772347,LA TOUR-DU-PIN,45.560588,5.44965,France
8772342,BOURGOIN-JALLIEU,45.583616,5.273226999999999,France
8772339,LA VERPILLIERE,45.627642,5.1505790000000005,France
8743955,VITROLLES AEROPORT MARSEILLE,43.441356,5.237181,France
8775368,ST-MARTIN-DE-CRAU,43.622341,4.800180999999999,France
8776116,TAIN-L'HERMITAGE - TOURNON,45.072324,4.839757,France
8776113,SAINT-VALLIER SUR RHONE,45.18638,4.814552,France
8776110,SAINT-RAMBERT-D'ALBON,45.297738,4.810601,France
8772267,LE PEAGE-DE-ROUSSILLON,45.37174,4.795278,France
8772265,SAINT-CLAIR - LES ROCHES,45.450255,4.769824,France
8772258,VIENNE,45.521026,4.874401,France
8776447,LE TEIL,44.559846,4.68372,France
8771311,LES LAUMES - ALESIA,47.543310999999996,4.462616000000001,France
8771315,NUITS SOUS RAVIERES,47.729284,4.211317,France
8771319,TONNERRE,47.859553000000005,3.973676,France
8768331,SAINT-FLORENTIN-VERGIGNY,47.980627,3.73115,France
8768326,LAROCHE-MIGENNES,47.960623999999996,3.507191,France
8768324,JOIGNY,47.973729,3.3930809999999996,France
8768300,SENS,48.198017,3.267424,France
8768200,MELUN,48.527412,2.654776,France
8768320,ETIGNY-VERON,48.13867,3.290507,France
8768321,VILLENEUVE-SUR-YONNE,48.085015000000006,3.286922,France
8768322,SAINT-JULIEN-DU-SAULT,48.02695,3.3029800000000002,France
8771357,CHAGNY,46.907424,4.749366,France
8772562,TOURNUS,46.569371000000004,4.9069519999999995,France
8772135,BELLEVILLE SUR SAONE,46.111482,4.728629,France
8772133,VILLEFRANCHE-SUR-SAONE,45.984477000000005,4.721148,France
8772128,SAINT-GERMAIN-AU-MONT-D'OR,45.888541,4.804658,France
8771352,NUITS-SAINT-GEORGES,47.130629,4.956715,France
8772100,LYON VAISE,45.780190000000005,4.803694,France
8774169,NOTRE-DAME-DE-BRIANCON,45.539576000000004,6.468597,France
8774162,FRONTENEX,45.630373,6.313547,France
8774161,GRESY-SUR-ISERE,45.594431,6.258875,France
8774122,SAINT-PIERRE-D'ALBIGNY,45.557233000000004,6.156667,France
8774371,AMBERIEU,45.953815000000006,5.341486,France
8774143,LEPIN-LE-LAC-LA-BAUCHE,45.541594,5.765073,France
8774147,PONT-DE-BEAUVOISIN,45.524452000000004,5.68064,France
8771857,GILLEY,47.050059000000005,6.492565,France
8771855,AVOUDREY,47.129743,6.434556,France
8771854,LE VALDAHON,47.149879,6.342308999999999,France
8771860,LE VALDAHON CAMP MILITAIRE,47.154071,6.295364,France
8771853,ETALANS,47.155756,6.270491000000001,France
8771852,L'HOPITAL-DU-GROSBOIS,47.169104,6.213083,France
8771851,MAMIROLLE,47.200083,6.161957,France
8771850,SAONE,47.209765000000004,6.101312,France
8739130,MORRE,47.225883,6.067336,France
8771801,BESANCON MOUILLERE,47.24049,6.034033999999999,France
8774670,CHEDDE,45.926277,6.720064,France
8774671,SERVOZ,45.9243,6.76382,France
8774672,VAUDAGNE,45.908796,6.7727070000000005,France
8774673,VIADUC-STE-MARIE,45.897099,6.785077,France
8774674,LES HOUCHES,45.89393,6.797592,France
8774675,TACONNAZ,45.899209,6.825895,France
8774676,LES BOSSONS,45.906997,6.839377000000001,France
8774677,LES PELERINS,45.912591,6.847411,France
8774681,LES MOUSSOUX,45.916584,6.858858000000001,France
8746208,CHAMONIX-AIGUILLE DU MIDI,45.919955,6.866718,France
8774678,CHAMONIX-MONT-BLANC,45.92262,6.873836,France
8774682,LES PRAZ-DE-CHAMONIX,45.939702000000004,6.888649000000001,France
8774683,LES TINES,45.950959000000005,6.899139999999999,France
8774684,LA JOUX (F),45.965718,6.910150999999999,France
8774685,ARGENTIERE (HAUTE-SAVOIE),45.982178000000005,6.927846000000001,France
8774686,MONTROC-LE-PLANET,45.996665,6.934232000000001,France
8774688,LE BUET,46.018324,6.920802,France
8776518,COURTHEZON,44.090231,4.888242,France
8776519,BEDARRIDES,44.041078999999996,4.892811,France
8776520,SORGUES-CHATEAUNEUF-DU-PAPE,44.005425,4.875676,France
8774558,MACHILLY,46.251426,6.3280650000000005,France
8774559,BONS-EN-CHABLAIS,46.270391,6.365480000000001,France
8774562,PERRIGNIER,46.303457,6.424978,France
8774651,REIGNIER,46.125432,6.2675849999999995,France
8774624,GROISY-THORENS-LA-CAILLE,46.011106,6.175502,France
8774631,ST-PIERRE-EN-FAUCIGNY,46.059312,6.375712,France
8774633,BONNEVILLE,46.077739,6.416489,France
8774634,MARIGNIER,46.088725,6.507785,France
8774641,MAGLAND,46.016915000000004,6.621538,France
8719300,FORBACH,49.189217,6.900258,France
8719325,BENING-LES-SAINT-AVOLD,49.138191,6.828917,France
8719327,HOMBOURG-HAUT,49.126362,6.775001,France
8719331,SAINT-AVOLD,49.086052,6.721033,France
8719335,FAULQUEMONT,49.045715,6.604009,France
8719223,REMILLY,49.014351,6.3951400000000005,France
8719334,TETING-SUR-NIED,49.051712,6.663732,France
8719338,HERNY,49.003809999999994,6.476801999999999,France
8731726,CALAIS-VILLE,50.953402000000004,1.850179,France
8718793,BALE SAINT-JEAN,47.57031,7.572744999999999,Switzerland
8721214,MOMMENHEIM,48.755848,7.641458999999999,France
8721316,OBERMODERN,48.842341999999995,7.546880000000001,France
8721378,INGWILLER,48.872642,7.476667,France
8721374,WINGEN-SUR-MODER,48.920359999999995,7.381867999999999,France
8721569,TIEFFENBACH - STRUTH,48.90636,7.255394,France
8721566,DIEMERINGEN,48.940615,7.184837,France
8721563,OERMINGEN,49.00031,7.131803,France
8719366,KALHAUSEN,49.035169,7.125195,France
8719361,SARREGUEMINES,49.107257000000004,7.067878,France
8714182,PONT-A-MOUSSON,48.899721,6.050876000000001,France
8719246,PAGNY-SUR-MOSELLE,48.985502000000004,6.02543,France
8719111,HAGONDANGE,49.253403000000006,6.164071,France
8719113,UCKANGE,49.303435,6.156323,France
8719100,THIONVILLE,49.333258,6.1517599999999995,France
8719109,WALYGATOR PARC,49.224277,6.159706,France
8719116,HETTANGE-GRANDE,49.407786,6.156691,France
8719110,MAIZIERES-LES-METZ,49.215571000000004,6.158258999999999,France
8719208,WOIPPY,49.148806,6.155867,France
8719207,METZ NORD,49.136868,6.16791,France
8718101,SAINT-LOUIS LA CHAUSSEE,47.609442,7.531254,France
8718211,BARTENHEIM,47.635109,7.487252000000001,France
8718210,SIERENTZ,47.656105,7.459328999999999,France
8718208,HABSHEIM,47.738114,7.418006,France
8718207,RIXHEIM,47.748739,7.406153,France
8721412,BENFELD,48.373672,7.583799000000001,France
8721414,ERSTEIN,48.42317,7.638517,France
8718270,BOLLWILLER,47.85702,7.267578,France
8718233,ROUFFACH,47.960319,7.312616,France
8774150,VIRIEU-LE-GRAND-BELLEY,45.848279,5.653766,France
8774582,SEYSSEL-CORBONOD,45.963031,5.8313440000000005,France
8774375,TENAY-HAUTEVILLE,45.922545,5.5009879999999995,France
8772358,MEXIMIEUX - PEROUGES,45.901676,5.193522,France
8774541,VALLEIRY,46.109324,5.967225,France
8774543,SAINT-JULIEN-EN-GENEVOIS,46.141928,6.08559,France
8508068,BIBERIST RBS,47.183859999999996,7.55583,Switzerland
8508066,LOHN-LUTERKOFEN,47.16299,7.526959,Switzerland
8508064,BATTERKINDEN,47.13002,7.5343990000000005,Switzerland
8508063,SCHALUNEN,47.11016,7.5241690000000006,Switzerland
8508062,BUREN ZUM HOF,47.09595,7.518809,Switzerland
8508061,FRAUBRUNNEN,47.08645,7.522158999999999,Switzerland
8508060,GRAFENRIED,47.08012,7.511609,Switzerland
8508059,JEGENSTORF,47.04761,7.507778999999999,Switzerland
8508070,OBERZOLLIKOFEN,46.99695,7.461628999999999,Switzerland
8508054,WORBLAUFEN,46.978840000000005,7.457628999999999,Switzerland
8507063,WORB DORF,46.92998,7.562469,Switzerland
8589198,WORBBODEN,46.933929,7.559525,Switzerland
8507064,VECHIGEN,46.94676,7.556458999999999,Switzerland
8507065,BOLL-UTZIGEN,46.95361,7.547289,Switzerland
8507066,STETTLEN,46.95682,7.5240990000000005,Switzerland
8507067,DEISSWIL,46.957209999999996,7.5141990000000005,Switzerland
8507068,BOLLIGEN,46.96954,7.497419,Switzerland
8507069,ITTIGEN BEI BERN,46.97331,7.484128999999999,Switzerland
8507096,PAPIERMUHLE,46.9739,7.477169,Switzerland
8508056,MOOSSEEDORF,47.01614,7.4848490000000005,Switzerland
8508071,SCHONBUHL SHOPPYLAND,47.01862,7.493628999999999,Switzerland
8508057,SCHONBUHL RBS,47.02048,7.497808999999999,Switzerland
8508058,URTENEN,47.028890000000004,7.500649,Switzerland
8508052,BERN TIEFENAU,46.97274,7.4501990000000005,Switzerland
8508051,BERN FELSENAU,46.9685,7.444249,Switzerland
8508055,UNTERZOLLIKOFEN,46.99168,7.457089,Switzerland
8508053,STEINIBACH,46.98333,7.457528999999999,Switzerland
8508285,GAMMENTHAL,47.034862,7.7378789999999995,Switzerland
8508286,GRIESBACH,47.044332,7.742116,Switzerland
8508275,AFFOLTERN-WEIER,47.062103,7.749957000000001,Switzerland
8508276,HAUSERNMOOS,47.078438,7.749841,Switzerland
8508287,MUSSACHEN,47.090022999999995,7.772719,Switzerland
8508278,DURRENROTH,47.091205,7.7926009999999994,Switzerland
8508194,HUTTWIL SPORTZENTRUM,47.110793,7.829674000000001,Switzerland
8518400,EI IM EMMENTAL,47.027645,7.755756,Switzerland
8506521,OBEREI BEI WASEN I.E.,47.043434000000005,7.7770220000000005,Switzerland
8508273,WASEN I.E.,47.043282,7.791746000000001,Switzerland
8503133,NEUTHAL,47.35788,8.864358,Switzerland
8503132,BARETSWIL,47.337313,8.852162,Switzerland
8503131,ETTENHAUSEN-EMMETSCHLOO,47.32482,8.834299,Switzerland
8501688,TASCH,46.06746,7.774508999999999,Switzerland
8501683,STALDEN-SAAS,46.231970000000004,7.870759,Switzerland
8501684,KALPETRAN,46.21407,7.836969,Switzerland
8501685,ST. NIKLAUS VS,46.177479999999996,7.802109,Switzerland
8501686,HERBRIGGEN,46.13214,7.791639,Switzerland
8501687,RANDA,46.09993,7.781459,Switzerland
8519685,AARAU TORFELD,47.39356,8.062629,Switzerland
8502123,BUCHS AG,47.38973,8.069579,Switzerland
8502189,GRANICHEN TONDLER,47.36399,8.092049000000001,Switzerland
8502160,GRANICHEN,47.36166,8.098778999999999,Switzerland
8502184,GRANICHEN OBERDORF,47.35653,8.106479,Switzerland
8502174,BLEIEN LIEBEGG,47.34352,8.113539,Switzerland
8502161,TEUFENTHAL AG,47.3294,8.114469,Switzerland
8516450,UNTERKULM NORD,47.31476,8.113039,Switzerland
8502162,UNTERKULM,47.31012,8.115129,Switzerland
8502183,OBERKULM POST,47.3041,8.119409,Switzerland
8502163,OBERKULM,47.29907,8.124039,Switzerland
8502164,GONTENSCHWIL,47.2804,8.144789,Switzerland
8502165,ZETZWIL,47.28242,8.153019,Switzerland
8502166,LEIMBACH AG,47.27271,8.167859,Switzerland
8502167,REINACH AG NORD,47.257263,8.181452,Switzerland
8502176,REINACH AG MITTE,47.2545,8.183389,Switzerland
8502168,REINACH AG,47.250083000000004,8.184457,Switzerland
8502169,MENZIKEN,47.24092,8.189309,Switzerland
8502199,SCHOFTLAND,47.30587,8.050009,Switzerland
8502177,SCHOFTLAND NORDWEG,47.3111,8.051219,Switzerland
8502197,HIRSCHTHAL,47.31988,8.052819,Switzerland
8502178,OBERMUHEN,47.329429,8.054511,Switzerland
8502179,MITTELMUHEN,47.33453,8.054265,Switzerland
8502195,MUHEN,47.338826,8.053296000000001,Switzerland
8502180,MUHEN NORD,47.34359,8.052629,Switzerland
8502194,OBERENTFELDEN ENGELPLATZ,47.356159999999996,8.046619,Switzerland
8502181,OBERENTFELDEN UERKENBRUCKE,47.36107,8.045669,Switzerland
8502182,UNTERENTFELDEN OBERDORF,47.36473,8.042019,Switzerland
8502196,UNTERENTFELDEN POST,47.36867,8.044439,Switzerland
8502192,DISTELBERG,47.37546,8.049249,Switzerland
8502191,BINZENHOF,47.38321,8.050578999999999,Switzerland
8504298,STE-CROIX,46.819435,6.500704,Switzerland
8504296,SIX-FONTAINES,46.774224,6.498768,Switzerland
8504295,BAULMES,46.788748999999996,6.524280999999999,Switzerland
8504294,VUITEBOEUF,46.803762,6.5537399999999995,Switzerland
8504293,ESSERT-SOUS-CHAMPVENT,46.795356,6.580156,Switzerland
8504292,VALEYRES-SOUS-MONTAGNY,46.796822999999996,6.611338000000001,Switzerland
8504291,LA BRINAZ,46.794449,6.620216,Switzerland
8530263,YVERDON WILLIAM BARBEY,46.788992,6.631676,Switzerland
8501191,ORBE,46.724408000000004,6.530142,Switzerland
8530262,ST-ELOI,46.720246,6.53251,Switzerland
8501194,LES GRANGES (ORBE),46.720971,6.541469,Switzerland
8060978,WEIL AM RHEIN GARTENSTADT,47.588707,7.616283999999999,Germany
8060979,WEIL AM RHEIN PFADLISTRASSE,47.589015,7.626492999999999,Germany
8014429,WEIL AM RHEIN-OST,47.590629,7.63478,Germany
8069220,LORRACH DAMMSTRASSE,47.597713,7.6552240000000005,Germany
8014440,LORRACH-STETTEN,47.601418,7.659032000000001,Germany
8069221,LORRACH MUSEUM/BURGHOF,47.607960999999996,7.661196,Germany
8014441,LORRACH HBF,47.614053000000006,7.66542,Germany
8083846,LORRACH SCHWARZWALDSTRASSE,47.624683000000005,7.672569,Germany
8014443,LORRACH HAAGEN/MESSE,47.633233000000004,7.680892999999999,Germany
8014444,LORRACH BROMBACH/HAUINGEN,47.637611,7.695207000000001,Germany
8014445,STEINEN (D),47.641604,7.741561,Germany
8014446,MAULBURG,47.644374,7.7806619999999995,Germany
8083840,SCHOPFHEIM-WEST,47.645540999999994,7.801715,Germany
8014447,SCHOPFHEIM,47.64797,7.822674,Germany
8021703,SCHOPFHEIM-SCHLATTHOLZ,47.653802,7.833792999999999,Germany
8014448,FAHRNAU,47.661559999999994,7.839425,Germany
8014449,HAUSEN-RAITBACH,47.67931,7.8460410000000005,Germany
8014450,ZELL (WIESENTAL),47.705626,7.849149000000001,Germany
8087021,RIEHEN NIEDERHOLZ,47.569472999999995,7.633441,Switzerland
8014439,RIEHEN,47.583156,7.652008,Switzerland
