,stop_id,stop_code,stop_name,stop_desc,stop_lat,stop_lon,zone_id,stop_url,location_type,parent_station,platform_code,country
0,8015345,,AACHEN HBF (DE),,50.77083,6.105277,,,0,,,Germany
1,8200100,,LUXEMBOURG (LU),,49.6,6.133333,,,0,,,Luxembourg
2,8200101,,DOMMELDANGE (LU),,49.6339,6.136765,,,0,,,Luxembourg
3,8200102,,PFAFFENTHAL-KIRCHBERG (LU),,49.61913,6.132853,,,0,,,Luxembourg
4,8200110,,MERSCH (LU),,49.74889,6.106111,,,0,,,Luxembourg
5,8200120,,ETTELBRUCK(LU),,49.8475,6.104167,,,0,,,Luxembourg
6,8200128,,MICHELAU (LU),,49.897290000000005,6.09149,,,0,,,Luxembourg
7,8200130,,KAUTENBACH (LU),,49.95278,6.02,,,0,,,Luxembourg
8,8200132,,WILWERWILTZ (LU),,49.988890000000005,5.999167,,,0,,,Luxembourg
9,8200133,,DRAUFFELT (LU),,50.01778,6.006111,,,0,,,Luxembourg
10,8200134,,CLERVAUX (LU),,50.05472,6.031389,,,0,,,Luxembourg
11,8200136,,TROISVIERGES (LU),,50.121109999999994,6.000278,,,0,,,Luxembourg
12,8200510,,BERTRANGE STRASSEN (LU),,49.61111,6.05,,,0,,,Luxembourg
13,8200516,,MAMER (LU),,49.62587,6.020131,,,0,,,Luxembourg
14,8200518,,CAPELLEN (LU),,49.645,5.990833,,,0,,,Luxembourg
15,8200520,,KLEINBETTINGEN (LU),,49.646390000000004,5.916389,,,0,,,Luxembourg
16,8200930,,PETANGE,,49.55425,5.878681,,,0,,,Luxembourg
17,8200940,,RODANGE (LU),,49.55128,5.845025,,,0,,,Luxembourg
18,8210014,,MAMER-LYCEE (LU),,49.6194,6.028495,,,0,,,Luxembourg
19,8400058,,AMSTERDAM CS (NL),,52.35,4.916667,,,0,,,Netherlands
20,8400131,,BREDA (NL),,51.59568,4.780017,,,0,,,Netherlands
21,8400219,,EIJSDEN (NL),,50.77213,5.70979,,,0,,,Netherlands
22,8400280,,DEN HAAG HS (NL),,52.08333,4.3,,,0,,,Netherlands
23,8400424,,MAASTRICHT (NL),,50.85,5.705392,,,0,,,Netherlands
24,8400426,,MAASTRICHT RANDWIJCK (NL),,50.8385,5.716712,,,0,,,Netherlands
25,8400526,,ROOSENDAAL (NL),,51.54083,4.458692,,,0,,,Netherlands
26,8400530,,ROTTERDAM CS (NL),,51.91667,4.5,,,0,,,Netherlands
27,8400561,,SCHIPHOL (NL),,52.3,4.75,,,0,,,Netherlands
28,8727100,,PARIS NORD (FR),,48.86667,2.333333,,,0,,,France
29,8728105,,CROIX L'ALLUMETTE (FR),,50.6757,3.133809,,,0,,,France
30,8728600,,LILLE FLANDRES (FR),,50.63333,3.066667,,,0,,,France
31,8728606,,HELLEMMES (FR),,50.626940000000005,3.108888,,,0,,,France
32,8728654,,TOURCOING (FR),,50.71667,3.15,,,0,,,France
33,8728671,,CROIX WASQUEHAL (FR),,50.66667,3.15,,,0,,,France
34,8728673,,ROUBAIX (FR),,50.7,3.166667,,,0,,,France
35,8728683,,PONT DE BOIS (FR),,50.624159999999996,3.1275,,,0,,,France
36,8728685,,ANNAPPES (FR),,50.63333,3.15,,,0,,,France
37,8728686,,ASCQ (FR),,50.61667,3.166667,,,0,,,France
38,8728687,,BAISIEUX (FR),,50.6,3.25,,,0,,,France
39,8728710,,LEZENNES (FR),,50.61667,3.116667,,,0,,,France
40,8729500,,MAUBEUGE (F),,50.272890000000004,3.966566,,,0,,,France
41,8729560,,AULNOYE AYMERIES (F),,50.19744,3.843413,,,0,,,France
56,8811007,,SCHAERBEEK,,50.87851,4.37864,,,0,S8811007,,Belgium
60,8811106,,EVERE,,50.867779999999996,4.400963,,,0,S8811106,,Belgium
66,8811130,,HAREN-SUD,,50.88969,4.415358,,,0,S8811130,,Belgium
70,8811148,,BUDA,,50.9075,4.417075,,,0,S8811148,,Belgium
74,8811155,,HAREN,,50.88888,4.41998,,,0,S8811155,,Belgium
78,8811163,,BORDET,,50.877790000000005,4.410024,,,0,S8811163,,Belgium
82,8811171,,MEISER,,50.85407,4.394424,,,0,S8811171,,Belgium
90,8811189,,VILVORDE,,50.92458,4.432826,,,0,S8811189,,Belgium
94,8811197,,MERODE,,50.83928,4.398932,,,0,S8811197,,Belgium
98,8811205,,DELTA,,50.81836,4.403871,,,0,S8811205,,Belgium
104,8811213,,DIEGEM,,50.89048,4.442773,,,0,S8811213,,Belgium
110,8811221,,ZAVENTEM,,50.88572,4.46989,,,0,S8811221,,Belgium
116,8811247,,NOSSEGEM,,50.883309999999994,4.50611,,,0,S8811247,,Belgium
122,8811254,,KORTENBERG,,50.89307,4.5433,,,0,S8811254,,Belgium
128,8811262,,ERPS-KWERPS,,50.89651,4.585,,,0,S8811262,,Belgium
134,8811270,,VELTEM,,50.90052,4.63352,,,0,S8811270,,Belgium
139,8811288,,HERENT,,50.903529999999996,4.67219,,,0,S8811288,,Belgium
147,8811304,,BRUXELLES-LUXEMBOURG,,50.83894,4.373676,,,0,S8811304,,Belgium
151,8811403,,GERMOIR,,50.83,4.379445,,,0,S8811403,,Belgium
157,8811411,,ETTERBEEK,,50.82219,4.389517,,,0,S8811411,,Belgium
161,8811429,,WATERMAEL,,50.80917,4.399885,,,0,S8811429,,Belgium
165,8811437,,BOITSFORT,,50.7947,4.408114,,,0,S8811437,,Belgium
169,8811445,,GROENENDAAL,,50.7661,4.44949,,,0,S8811445,,Belgium
173,8811460,,HOEILAART,,50.76016,4.46741,,,0,S8811460,,Belgium
177,8811510,,LA HULPE,,50.73796,4.49706,,,0,S8811510,,Belgium
181,8811528,,GENVAL,,50.7257,4.514834,,,0,S8811528,,Belgium
185,8811536,,RIXENSART,,50.71141,4.53286,,,0,S8811536,,Belgium
189,8811544,,PROFONDSART,,50.69965,4.545435,,,0,S8811544,,Belgium
201,8811601,,OTTIGNIES,,50.67367,4.56936,,,0,S8811601,,Belgium
205,8811635,,LIMAL,,50.69214,4.5753,,,0,S8811635,,Belgium
210,8811676,,LOUVAIN-LA-NEUVE,,50.6698,4.615746,,,0,S8811676,,Belgium
214,8811718,,BIERGES-WALIBI,,50.707770000000004,4.59475,,,0,S8811718,,Belgium
219,8811726,,WAVRE,,50.71627,4.60478,,,0,S8811726,,Belgium
223,8811734,,BASSE-WAVRE,,50.72442,4.621653,,,0,S8811734,,Belgium
227,8811742,,GASTUCHE,,50.73665,4.6496,,,0,S8811742,,Belgium
231,8811759,,ARCHENNES,,50.75435,4.662441,,,0,S8811759,,Belgium
235,8811767,,FLORIVAL,,50.7615,4.65387,,,0,S8811767,,Belgium
239,8811775,,PECROT,,50.77851,4.651483,,,0,S8811775,,Belgium
243,8811817,,CEROUX-MOUSTY,,50.65994,4.569049,,,0,S8811817,,Belgium
247,8811825,,COURT-SAINT-ETIENNE,,50.64557,4.56582,,,0,S8811825,,Belgium
253,8811916,,BRUXELLES-SCHUMAN,,50.84328,4.380725,,,0,S8811916,,Belgium
257,8811940,,ANDERLECHT,,50.8179,4.2918,,,0,S8811940,,Belgium
271,8812005,,BRUXELLES-NORD,,50.85966,4.36085,,,0,S8812005,,Belgium
275,8812013,,SIMONIS,,50.863640000000004,4.328982,,,0,S8812013,,Belgium
279,8812021,,BOCKSTAEL,,50.87943,4.34851,,,0,S8812021,,Belgium
285,8812047,,JETTE,,50.880829999999996,4.326218,,,0,S8812047,,Belgium
289,8812062,,ZELLIK,,50.890029999999996,4.274546,,,0,S8812062,,Belgium
293,8812070,,ASSE,,50.906490000000005,4.207988,,,0,S8812070,,Belgium
297,8812112,,MOLLEM,,50.933479999999996,4.216967,,,0,S8812112,,Belgium
301,8812120,,MERCHTEM,,50.95495,4.222719,,,0,S8812120,,Belgium
306,8812146,,OPWIJK,,50.974779999999996,4.187317,,,0,S8812146,,Belgium
310,8812153,,HEIZIJDE,,50.9896,4.156174,,,0,S8812153,,Belgium
314,8812161,,LEBBEKE,,51.00501,4.134372,,,0,S8812161,,Belgium
318,8812211,,BERCHEM-SAINTE-AGATHE,,50.87263,4.289892,,,0,S8812211,,Belgium
322,8812229,,GRAND-BIGARD,,50.86834,4.273542,,,0,S8812229,,Belgium
326,8812237,,DILBEEK,,50.86673,4.24339,,,0,S8812237,,Belgium
330,8812245,,SINT-MARTENS-BODEGEM,,50.86716,4.20508,,,0,S8812245,,Belgium
335,8812252,,TERNAT,,50.874520000000004,4.16534,,,0,S8812252,,Belgium
339,8812260,,ESSENE LOMBEEK,,50.88245,4.11517,,,0,S8812260,,Belgium
347,8813003,,BRUXELLES-CENTRAL,,50.84565,4.356804,,,0,S8813003,,Belgium
351,8813037,,BRUXELLES-CHAPELLE,,50.84113,4.34787,,,0,S8813037,,Belgium
355,8813045,,BRUXELLES-CONGRES,,50.85207,4.362051,,,0,S8813045,,Belgium
376,8814001,,BRUXELLES-MIDI,,50.83571,4.33653,,,0,S8814001,,Belgium
380,8814118,,FOREST-EST,,50.8102,4.32094,,,0,S8814118,,Belgium
384,8814126,,UCCLE-STALLE,,50.802409999999995,4.3239,,,0,S8814126,,Belgium
388,8814134,,UCCLE-CALEVOET,,50.79175,4.332211,,,0,S8814134,,Belgium
392,8814142,,LINKEBEEK,,50.77369,4.339434,,,0,S8814142,,Belgium
396,8814159,,HOLLEKEN,,50.76763,4.353956,,,0,S8814159,,Belgium
400,8814167,,RHODE-SAINT-GENESE,,50.74781,4.362001,,,0,S8814167,,Belgium
404,8814175,,DE HOEK,,50.73881,4.370713,,,0,S8814175,,Belgium
410,8814209,,NIVELLES,,50.59964,4.335065,,,0,S8814209,,Belgium
414,8814241,,LILLOIS,,50.64542,4.365369,,,0,S8814241,,Belgium
419,8814258,,BRAINE-L'ALLEUD,,50.684779999999996,4.37553,,,0,S8814258,,Belgium
423,8814266,,WATERLOO,,50.71542,4.383485,,,0,S8814266,,Belgium
430,8814308,,HAL,,50.73393,4.240633,,,0,S8814308,,Belgium
434,8814332,,LEMBEEK,,50.715109999999996,4.22158,,,0,S8814332,,Belgium
438,8814340,,BUIZINGEN,,50.75158,4.25856,,,0,S8814340,,Belgium
442,8814357,,LOT,,50.76636,4.2737,,,0,S8814357,,Belgium
446,8814365,,RUISBROEK,,50.79183,4.29533,,,0,S8814365,,Belgium
450,8814373,,FOREST-MIDI,,50.80922,4.309167,,,0,S8814373,,Belgium
454,8814415,,HUIZINGEN,,50.7519,4.266485,,,0,S8814415,,Belgium
458,8814423,,BEERSEL,,50.76661,4.302603,,,0,S8814423,,Belgium
462,8814431,,MOENSBERG,,50.77832,4.330729,,,0,S8814431,,Belgium
466,8814449,,SAINT-JOB,,50.79441,4.362758,,,0,S8814449,,Belgium
470,8814456,,BOONDAEL,,50.801359999999995,4.393081,,,0,S8814456,,Belgium
474,8814464,,VIVIER D OIE,,50.79615,4.37405,,,0,S8814464,,Belgium
478,8814472,,ARCADES,,50.80992,4.39854,,,0,S8814472,,Belgium
482,8815016,,TOUR-ET-TAXIS,,50.8728,4.342105,,,0,S8815016,,Belgium
486,8815040,,BRUXELLES-OUEST,,50.84856,4.32104,,,0,S8815040,,Belgium
491,8819406,,BRUSSELS AIRPORT-ZAVENTEM,,50.89646,4.482072,,,0,S8819406,,Belgium
507,8821006,,ANVERS-CENTRAL,,51.2172,4.421098,,,0,S8821006,,Belgium
511,8821063,,ANVERS-LUCHTBAL,,51.24413,4.425033,,,0,S8821063,,Belgium
515,8821071,,EKEREN,,51.28163,4.434153,,,0,S8821071,,Belgium
519,8821089,,ANVERS-NOORDERDOKKEN,,51.26164,4.42791,,,0,S8821089,,Belgium
523,8821105,,NOORDERKEMPEN (BRECHT),,51.35683,4.6322,,,0,S8821105,,Belgium
532,8821121,,ANVERS-BERCHEM,,51.19923,4.432219,,,0,S8821121,,Belgium
536,8821147,,MORTSEL,,51.182959999999994,4.448435,,,0,S8821147,,Belgium
540,8821154,,MORTSEL-DEURNESTEENWEG,,51.18303,4.446515,,,0,S8821154,,Belgium
546,8821196,,ANVERS-SUD,,51.197829999999996,4.390264,,,0,S8821196,,Belgium
550,8821238,,MORTSEL-OUDE GOD,,51.17125,4.455737,,,0,S8821238,,Belgium
554,8821246,,MORTSEL-LIERSESTEENWEG,,51.16903,4.468841,,,0,S8821246,,Belgium
561,8821311,,KONTICH-LINT,,51.134029999999996,4.476358,,,0,S8821311,,Belgium
567,8821337,,HOVE,,51.15412,4.465158,,,0,S8821337,,Belgium
571,8821402,,ESSEN,,51.462759999999996,4.451318,,,0,S8821402,,Belgium
575,8821436,,WILDERT,,51.428090000000005,4.463349,,,0,S8821436,,Belgium
579,8821444,,KALMTHOUT,,51.39117,4.466825,,,0,S8821444,,Belgium
583,8821451,,KIJKUIT,,51.378659999999996,4.467318,,,0,S8821451,,Belgium
587,8821519,,HEIDE,,51.36462,4.460482,,,0,S8821519,,Belgium
592,8821535,,KAPELLEN,,51.31353,4.432662,,,0,S8821535,,Belgium
596,8821543,,SINT-MARIABURG,,51.29165,4.434902,,,0,S8821543,,Belgium
603,8821600,,LIERRE,,51.13576,4.560611,,,0,S8821600,,Belgium
607,8821634,,BOECHOUT,,51.16348,4.494487,,,0,S8821634,,Belgium
611,8821659,,KESSEL,,51.15106,4.61846,,,0,S8821659,,Belgium
615,8821667,,NIJLEN,,51.15984,4.666589,,,0,S8821667,,Belgium
619,8821709,,WOLFSTEE,,51.16836,4.786148,,,0,S8821709,,Belgium
626,8821717,,HERENTALS,,51.181509999999996,4.82954,,,0,S8821717,,Belgium
630,8821725,,BOUWEL,,51.16576,4.746515,,,0,S8821725,,Belgium
634,8821816,,BERLAAR,,51.113659999999996,4.638808,,,0,S8821816,,Belgium
638,8821824,,MELKOUWEN,,51.09494,4.671533,,,0,S8821824,,Belgium
643,8821832,,HEIST-OP-DEN-BERG,,51.07415,4.708231,,,0,S8821832,,Belgium
647,8821857,,BOOISCHOT,,51.03734,4.773481,,,0,S8821857,,Belgium
651,8821865,,BEGIJNENDIJK,,51.02197,4.80034,,,0,S8821865,,Belgium
655,8821907,,TURNHOUT,,51.32203,4.937413,,,0,S8821907,,Belgium
659,8821964,,TIELEN,,51.24102,4.89309,,,0,S8821964,,Belgium
670,8822004,,MALINES,,51.01765,4.482785,,,0,S8822004,,Belgium
674,8822053,,KAPELLE-OP-DEN-BOS,,51.01084,4.359118,,,0,S8822053,,Belgium
679,8822111,,LONDERZEEL,,51.00909,4.299069,,,0,S8822111,,Belgium
683,8822137,,MALDEREN,,51.01449,4.22911,,,0,S8822137,,Belgium
687,8822145,,BUGGENHOUT,,51.016290000000005,4.201663,,,0,S8822145,,Belgium
691,8822160,,BAASRODE-ZUID,,51.01944,4.153496,,,0,S8822160,,Belgium
697,8822210,,DUFFEL,,51.09124,4.493184,,,0,S8822210,,Belgium
703,8822228,,SINT-KATELIJNE-WAVER,,51.06998,4.496119,,,0,S8822228,,Belgium
709,8822251,,WEERDE,,50.97745,4.470935,,,0,S8822251,,Belgium
715,8822269,,EPPEGEM,,50.9584,4.45749,,,0,S8822269,,Belgium
719,8822277,,HOFSTADE,,50.988659999999996,4.49834,,,0,S8822277,,Belgium
726,8822343,,MALINES-NEKKERSPOEL,,51.02988,4.489917,,,0,S8822343,,Belgium
732,8822426,,MUIZEN,,51.0082,4.51384,,,0,S8822426,,Belgium
736,8822459,,HEVER,,50.99779,4.537634,,,0,S8822459,,Belgium
740,8822475,,BOORTMEERBEEK,,50.98185,4.5739,,,0,S8822475,,Belgium
744,8822517,,HAACHT,,50.966429999999995,4.613306,,,0,S8822517,,Belgium
748,8822525,,WESPELAAR-TILDONK,,50.95855,4.638014,,,0,S8822525,,Belgium
752,8822533,,HAMBOS,,50.94425,4.66301,,,0,S8822533,,Belgium
756,8822608,,WILLEBROEK,,51.06635,4.35602,,,0,S8822608,,Belgium
761,8822715,,PUURS,,51.077220000000004,4.282701,,,0,S8822715,,Belgium
764,8822772,,BORNEM,,51.09923,4.24053,,,0,S8822772,,Belgium
768,8822814,,BOOM,,51.090709999999994,4.360698,,,0,S8822814,,Belgium
771,8822848,,RUISBROEK-SAUVEGARDE,,51.08103,4.325001,,,0,S8822848,,Belgium
775,8824158,,HOBOKEN-POLDER,,51.1827,4.347787,,,0,S8824158,,Belgium
779,8824224,,HEMIKSEM,,51.13625,4.338294,,,0,S8824224,,Belgium
783,8824232,,SCHELLE,,51.12551,4.340261,,,0,S8824232,,Belgium
787,8824240,,NIEL,,51.1116,4.338591,,,0,S8824240,,Belgium
788,8829009,,ESSEN-GRENS,,51.46909,4.44893,,,0,,,Belgium
799,8831005,,HASSELT,,50.930820000000004,5.327631,,,0,S8831005,,Belgium
803,8831039,,ALKEN,,50.886829999999996,5.292867,,,0,S8831039,,Belgium
807,8831088,,SCHULEN,,50.96376,5.187405,,,0,S8831088,,Belgium
811,8831112,,DIEPENBEEK,,50.91045,5.419946,,,0,S8831112,,Belgium
815,8831138,,BILZEN,,50.86864,5.50938,,,0,S8831138,,Belgium
822,8831310,,TONGRES,,50.7844,5.47328,,,0,S8831310,,Belgium
827,8831401,,DIEST,,50.99334,5.05003,,,0,S8831401,,Belgium
832,8831765,,GENK,,50.96706,5.497683,,,0,S8831765,,Belgium
836,8831781,,BOKRIJK,,50.95581,5.408383,,,0,S8831781,,Belgium
840,8831807,,SAINT-TROND,,50.81762,5.17665,,,0,S8831807,,Belgium
843,8832003,,BOURG-LEOPOLD,,51.117309999999996,5.25729,,,0,S8832003,,Belgium
846,8832045,,BALEN,,51.1691,5.164985,,,0,S8832045,,Belgium
849,8832227,,BEVERLO,,51.087720000000004,5.234375,,,0,S8832227,,Belgium
853,8832235,,BERINGEN,,51.0506,5.23589,,,0,S8832235,,Belgium
857,8832243,,HEUSDEN,,51.0382,5.281786,,,0,S8832243,,Belgium
860,8832250,,ZOLDER,,51.03352,5.330274,,,0,S8832250,,Belgium
863,8832334,,ZONHOVEN,,50.98956,5.348813,,,0,S8832334,,Belgium
867,8832375,,KIEWIT,,50.95485,5.350226,,,0,S8832375,,Belgium
872,8832409,,MOL,,51.19105,5.116333,,,0,S8832409,,Belgium
876,8832433,,GEEL,,51.16896,4.988611,,,0,S8832433,,Belgium
880,8832458,,OLEN,,51.17403,4.9025,,,0,S8832458,,Belgium
883,8832565,,LOMMEL,,51.21156,5.312032,,,0,S8832565,,Belgium
886,8832573,,OVERPELT,,51.21562,5.422756,,,0,S8832573,,Belgium
891,8832615,,NEERPELT,,51.22237,5.43717,,,0,S8832615,,Belgium
894,8832664,,HAMONT,,51.24642,5.543276,,,0,S8832664,,Belgium
909,8833001,,LOUVAIN,,50.88228,4.715868,,,0,S8833001,,Belgium
913,8833050,,VERTRIJK,,50.83628,4.83552,,,0,S8833050,,Belgium
917,8833126,,HEVERLEE,,50.86253,4.695201,,,0,S8833126,,Belgium
921,8833134,,OUD-HEVERLEE,,50.83593,4.65331,,,0,S8833134,,Belgium
926,8833159,,SINT-JORIS-WEERT,,50.80063,4.651728,,,0,S8833159,,Belgium
930,8833175,,WIJGMAAL,,50.922740000000005,4.701478,,,0,S8833175,,Belgium
937,8833209,,AARSCHOT,,50.98441,4.82404,,,0,S8833209,,Belgium
941,8833233,,WEZEMAAL,,50.95626,4.747681,,,0,S8833233,,Belgium
945,8833258,,LANGDORP,,51.00247,4.86354,,,0,S8833258,,Belgium
949,8833266,,TESTELT,,51.009859999999996,4.94583,,,0,S8833266,,Belgium
953,8833274,,ZICHEM,,51.00669,4.98736,,,0,S8833274,,Belgium
957,8833308,,TIRLEMONT,,50.80802,4.92581,,,0,S8833308,,Belgium
961,8833449,,EZEMAAL,,50.77213,4.99422,,,0,S8833449,,Belgium
968,8833605,,LANDEN,,50.74793,5.07966,,,0,S8833605,,Belgium
972,8833670,,NEERWINDEN,,50.76396,5.03632,,,0,S8833670,,Belgium
983,8841004,,LIEGE-GUILLEMINS,,50.62455,5.566698,,,0,S8841004,,Belgium
990,8841202,,ANS,,50.66121,5.5097,,,0,S8841202,,Belgium
994,8841319,,BIERSET-AWANS,,50.658609999999996,5.46055,,,0,S8841319,,Belgium
998,8841327,,VOROUX,,50.661809999999996,5.42956,,,0,S8841327,,Belgium
1004,8841400,,WAREMME,,50.69455,5.24948,,,0,S8841400,,Belgium
1008,8841434,,BLERET,,50.68507,5.286398,,,0,S8841434,,Belgium
1012,8841442,,REMICOURT,,50.67861,5.32141,,,0,S8841442,,Belgium
1016,8841459,,MOMALLE,,50.669909999999994,5.3676,,,0,S8841459,,Belgium
1020,8841467,,FEXHE-LE-HAUT-CLOCHER,,50.66405,5.39845,,,0,S8841467,,Belgium
1026,8841525,,LIEGE-SAINT-LAMBERT,,50.64635,5.570451,,,0,S8841525,,Belgium
1030,8841558,,LIEGE-CARRE,,50.6403,5.56113,,,0,S8841558,,Belgium
1036,8841608,,HERSTAL,,50.66091,5.622762,,,0,S8841608,,Belgium
1040,8841665,,MILMORT,,50.69246,5.600094,,,0,S8841665,,Belgium
1045,8841673,,LIERS,,50.69818,5.566829,,,0,S8841673,,Belgium
1048,8841731,,GLONS,,50.75043,5.535429,,,0,S8841731,,Belgium
1054,8842002,,ANGLEUR,,50.61314,5.59983,,,0,S8842002,,Belgium
1058,8842036,,CHENEE,,50.60802,5.616075,,,0,S8842036,,Belgium
1062,8842051,,CHAUDFONTAINE,,50.58698,5.643734,,,0,S8842051,,Belgium
1066,8842630,,TILFF,,50.57063,5.583933,,,0,S8842630,,Belgium
1070,8842648,,MERY,,50.54762,5.587237,,,0,S8842648,,Belgium
1074,8842655,,HONY,,50.53992,5.573567,,,0,S8842655,,Belgium
1078,8842663,,ESNEUX,,50.530559999999994,5.572567,,,0,S8842663,,Belgium
1082,8842689,,POULSEUR,,50.509209999999996,5.578855,,,0,S8842689,,Belgium
1086,8842705,,RIVAGE,,50.48328,5.587635,,,0,S8842705,,Belgium
1090,8842754,,AYWAILLE,,50.47293,5.672496,,,0,S8842754,,Belgium
1094,8842838,,COMBLAIN-LA-TOUR,,50.45686,5.566959,,,0,S8842838,,Belgium
1098,8842846,,HAMOIR,,50.42818,5.533561,,,0,S8842846,,Belgium
1102,8842853,,SY,,50.403259999999996,5.523566,,,0,S8842853,,Belgium
1106,8843067,,SERAING,,50.6089,5.513777,,,0,S8843067,,Belgium
1110,8843133,,SCLESSIN,,50.609840000000005,5.55891,,,0,S8843133,,Belgium
1114,8843141,,PONT-DE-SERAING,,50.61965,5.510161,,,0,S8843141,,Belgium
1118,8843158,,JEMEPPE-SUR-MEUSE,,50.61845,5.497871,,,0,S8843158,,Belgium
1122,8843166,,FLEMALLE-GRANDE,,50.60535,5.48098,,,0,S8843166,,Belgium
1126,8843174,,OUGREE,,50.6054,5.536972,,,0,S8843174,,Belgium
1133,8843208,,FLEMALLE-HAUTE,,50.59531,5.457661,,,0,S8843208,,Belgium
1137,8843224,,LEMAN,,50.6004,5.46831,,,0,S8843224,,Belgium
1141,8843240,,ENGIS,,50.58296,5.40199,,,0,S8843240,,Belgium
1147,8843307,,HUY,,50.52724,5.23421,,,0,S8843307,,Belgium
1151,8843323,,AMPSIN,,50.53922,5.289727,,,0,S8843323,,Belgium
1155,8843331,,AMAY,,50.546009999999995,5.32049,,,0,S8843331,,Belgium
1159,8843349,,HAUTE-FLONE,,50.553490000000004,5.330336,,,0,S8843349,,Belgium
1165,8843406,,STATTE,,50.52828,5.21968,,,0,S8843406,,Belgium
1169,8843430,,BAS-OHA,,50.52263,5.19094,,,0,S8843430,,Belgium
1173,8843901,,BRESSOUX,,50.64396,5.611062,,,0,S8843901,,Belgium
1180,8844008,,VERVIERS-CENTRAL,,50.58814,5.854913,,,0,S8844008,,Belgium
1184,8844057,,VERVIERS-PALAIS,,50.590920000000004,5.865333,,,0,S8844057,,Belgium
1190,8844206,,PEPINSTER,,50.56818,5.806155,,,0,S8844206,,Belgium
1194,8844230,,NESSONVAUX,,50.57209,5.741577,,,0,S8844230,,Belgium
1198,8844255,,FRAIPONT,,50.565059999999995,5.723666,,,0,S8844255,,Belgium
1202,8844271,,TROOZ,,50.573209999999996,5.688351,,,0,S8844271,,Belgium
1205,8844313,,PEPINSTER-CITE,,50.5634,5.804399,,,0,S8844313,,Belgium
1208,8844321,,JUSLENVILLE,,50.54472,5.809935,,,0,S8844321,,Belgium
1212,8844339,,THEUX,,50.536159999999995,5.81503,,,0,S8844339,,Belgium
1215,8844347,,FRANCHIMONT,,50.52572,5.82222,,,0,S8844347,,Belgium
1218,8844404,,SPA,,50.4903,5.855101,,,0,S8844404,,Belgium
1221,8844420,,SPA-GERONSTERE,,50.4893,5.866211,,,0,S8844420,,Belgium
1228,8844503,,WELKENRAEDT,,50.65971,5.975386,,,0,S8844503,,Belgium
1232,8844545,,DOLHAIN-GILEPPE,,50.61625,5.93649,,,0,S8844545,,Belgium
1236,8844628,,EUPEN,,50.63516,6.03711,,,0,S8844628,,Belgium
1239,8844644,,HERGENRATH,,50.71821,6.041336,,,0,S8844644,,Belgium
1244,8845005,,GOUVY,,50.189409999999995,5.95391,,,0,S8845005,,Belgium
1248,8845146,,VIELSALM,,50.278929999999995,5.909209,,,0,S8845146,,Belgium
1252,8845203,,TROIS-PONTS,,50.36822,5.873579,,,0,S8845203,,Belgium
1255,8845229,,COO,,50.39113,5.880474,,,0,S8845229,,Belgium
1259,8846201,,VISE,,50.737759999999994,5.692548,,,0,S8846201,,Belgium
1260,8847258,,Y.RENORY,,50.60485,5.55788,,,0,,,Belgium
1261,8849023,,HERGENRATH-FRONTIERE,,50.718959999999996,6.041269,,,0,,,Belgium
1262,8849064,,VISE-FRONTIERE,,50.75841,5.702903,,,0,,,Belgium
1263,8849072,,GOUVY-FRONTIERE,,50.17165,5.968613,,,0,,,Luxembourg
1268,8861119,,RONET,,50.45774,4.82842,,,0,S8861119,,Belgium
1273,8861127,,FLAWINNE,,50.45624,4.8063,,,0,S8861127,,Belgium
1277,8861135,,FLOREFFE,,50.443329999999996,4.762371,,,0,S8861135,,Belgium
1281,8861143,,FRANIERE,,50.43954,4.73355,,,0,S8861143,,Belgium
1285,8861150,,MOUSTIER,,50.45275,4.69381,,,0,S8861150,,Belgium
1286,8861168,,HAM-SUR-SAMBRE,,50.45255,4.66939,,,0,,,Belgium
1293,8861200,,GEMBLOUX,,50.570479999999996,4.691497,,,0,S8861200,,Belgium
1296,8861317,,CHAPELLE-DIEU,,50.55738,4.697624,,,0,S8861317,,Belgium
1299,8861333,,MAZY,,50.5135,4.67583,,,0,S8861333,,Belgium
1303,8861416,,LONZEE,,50.55194,4.7201,,,0,S8861416,,Belgium
1307,8861424,,BEUZET,,50.534209999999995,4.748531,,,0,S8861424,,Belgium
1311,8861432,,SAINT-DENIS-BOVESSE,,50.5213,4.76779,,,0,S8861432,,Belgium
1315,8861440,,RHISNES,,50.49935,4.80187,,,0,S8861440,,Belgium
1319,8861515,,ERNAGE,,50.59082,4.66854,,,0,S8861515,,Belgium
1323,8861523,,CHASTRE,,50.60882,4.648884,,,0,S8861523,,Belgium
1327,8861531,,BLANMONT,,50.61945,4.63639,,,0,S8861531,,Belgium
1331,8861549,,MONT-SAINT-GUIBERT,,50.637609999999995,4.613883,,,0,S8861549,,Belgium
1335,8862018,,STOCKEM,,49.690940000000005,5.769116,,,0,S8862018,,Belgium
1346,8863008,,NAMUR,,50.468790000000006,4.86222,,,0,S8863008,,Belgium
1351,8863115,,JAMBES,,50.45485,4.876143,,,0,S8863115,,Belgium
1355,8863156,,LUSTIN,,50.36975,4.877468,,,0,S8863156,,Belgium
1359,8863354,,JAMBES-EST,,50.4548,4.88026,,,0,S8863354,,Belgium
1363,8863362,,DAVE-SAINT-MARTIN,,50.4291,4.884417,,,0,S8863362,,Belgium
1367,8863404,,ANDENNE,,50.49677,5.094701,,,0,S8863404,,Belgium
1371,8863438,,CHATEAU-DE-SEILLES,,50.497209999999995,5.08175,,,0,S8863438,,Belgium
1375,8863446,,SCLAIGNEAUX,,50.49224,5.026359,,,0,S8863446,,Belgium
1379,8863453,,NAMECHE,,50.47043,4.997939,,,0,S8863453,,Belgium
1383,8863461,,MARCHE-LES-DAMES,,50.480740000000004,4.96458,,,0,S8863461,,Belgium
1388,8863503,,DINANT,,50.26072,4.90818,,,0,S8863503,,Belgium
1393,8863545,,YVOIR,,50.320840000000004,4.87864,,,0,S8863545,,Belgium
1397,8863560,,GODINNE,,50.34891,4.86996,,,0,S8863560,,Belgium
1401,8863818,,ANSEREMME,,50.23802,4.90553,,,0,S8863818,,Belgium
1405,8863834,,GENDRON-CELLES,,50.211240000000004,4.964611,,,0,S8863834,,Belgium
1409,8863842,,HOUYET,,50.18987,5.006076,,,0,S8863842,,Belgium
1413,8863867,,BEAURAING,,50.11443,4.95684,,,0,S8863867,,Belgium
1422,8864006,,ROCHEFORT-JEMELLE,,50.1604,5.266697,,,0,S8864006,,Belgium
1426,8864311,,FORRIERES,,50.13276,5.276783,,,0,S8864311,,Belgium
1430,8864337,,GRUPONT,,50.0906,5.280527,,,0,S8864337,,Belgium
1436,8864345,,MARLOIE,,50.20282,5.31389,,,0,S8864345,,Belgium
1440,8864352,,AYE,,50.22413,5.301096,,,0,S8864352,,Belgium
1443,8864410,,MARCHE-EN-FAMENNE,,50.22247,5.34629,,,0,S8864410,,Belgium
1447,8864436,,MELREUX-HOTTON,,50.28367,5.44014,,,0,S8864436,,Belgium
1450,8864451,,BARVAUX,,50.34942,5.50154,,,0,S8864451,,Belgium
1455,8864469,,BOMAL,,50.3768,5.519304,,,0,S8864469,,Belgium
1461,8864501,,CINEY,,50.29105,5.091406,,,0,S8864501,,Belgium
1465,8864816,,LEIGNON,,50.26777,5.10778,,,0,S8864816,,Belgium
1469,8864824,,CHAPOIS,,50.262370000000004,5.12426,,,0,S8864824,,Belgium
1473,8864832,,HAVERSIN,,50.24904,5.194376,,,0,S8864832,,Belgium
1477,8864915,,NATOYE,,50.3433,5.061162,,,0,S8864915,,Belgium
1481,8864931,,ASSESSE,,50.368140000000004,5.022836,,,0,S8864931,,Belgium
1485,8864949,,COURRIERE,,50.387440000000005,4.996051,,,0,S8864949,,Belgium
1489,8864956,,SART-BERNARD,,50.40637,4.94974,,,0,S8864956,,Belgium
1493,8864964,,NANINNE,,50.41969,4.929754,,,0,S8864964,,Belgium
1501,8865003,,LIBRAMONT,,49.920429999999996,5.37927,,,0,S8865003,,Belgium
1505,8865227,,POIX-SAINT-HUBERT,,50.01951,5.292646,,,0,S8865227,,Belgium
1510,8865300,,BERTRIX,,49.85283,5.267189,,,0,S8865300,,Belgium
1514,8865540,,PALISEUL,,49.89541,5.118351,,,0,S8865540,,Belgium
1518,8865565,,CARLSBOURG,,49.90546,5.092785,,,0,S8865565,,Belgium
1522,8865615,,GRAIDE,,49.934129999999996,5.043044,,,0,S8865615,,Belgium
1526,8865649,,GEDINNE,,49.984120000000004,4.978077,,,0,S8865649,,Belgium
1534,8866001,,ARLON,,49.68053,5.809972,,,0,S8866001,,Belgium
1538,8866118,,VIVILLE,,49.68824,5.786525,,,0,S8866118,,Belgium
1542,8866142,,HABAY,,49.71825,5.632689,,,0,S8866142,,Belgium
1546,8866175,,MARBEHAN,,49.72733,5.539757,,,0,S8866175,,Belgium
1550,8866258,,NEUFCHATEAU,,49.85432,5.452557,,,0,S8866258,,Belgium
1555,8866407,,VIRTON,,49.56082,5.519122,,,0,S8866407,,Belgium
1559,8866530,,HALANZY,,49.55621,5.741347,,,0,S8866530,,Belgium
1564,8866605,,ATHUS,,49.563340000000004,5.828944,,,0,S8866605,,Belgium
1568,8866654,,AUBANGE,,49.56409,5.798058,,,0,S8866654,,Belgium
1571,8866662,,MESSANCY,,49.59278,5.818919,,,0,S8866662,,Belgium
1575,8866845,,FLORENVILLE,,49.70697,5.33112,,,0,S8866845,,Belgium
1576,8869047,,ATHUS-FRONTIERE,,49.55175,5.824932,,,0,,,Belgium
1577,8869054,,STERPENICH-FRONTIERE,,49.64396,5.90415,,,0,,,Belgium
1583,8871100,,MARCHIENNE-AU-PONT,,50.41217,4.39422,,,0,S8871100,,Belgium
1587,8871175,,JAMIOULX,,50.3529,4.41129,,,0,S8871175,,Belgium
1591,8871183,,BEIGNEE,,50.333890000000004,4.406307,,,0,S8871183,,Belgium
1597,8871217,,ROUX,,50.44311,4.3932,,,0,S8871217,,Belgium
1603,8871225,,COURCELLES-MOTTE,,50.46201,4.40053,,,0,S8871225,,Belgium
1610,8871308,,LUTTRE,,50.50586,4.38412,,,0,S8871308,,Belgium
1614,8871332,,OBAIX-BUZET,,50.53521,4.36357,,,0,S8871332,,Belgium
1618,8871365,,PONT-A-CELLES,,50.51381,4.355296,,,0,S8871365,,Belgium
1622,8871373,,GOUY-LEZ-PIETON,,50.49706,4.325126,,,0,S8871373,,Belgium
1626,8871381,,GODARVILLE,,50.4928,4.29031,,,0,S8871381,,Belgium
1630,8871415,,PIETON,,50.43496,4.28844,,,0,S8871415,,Belgium
1634,8871514,,FORCHIES,,50.43331,4.325381,,,0,S8871514,,Belgium
1639,8871605,,ERQUELINNES,,50.304190000000006,4.11356,,,0,S8871605,,Belgium
1643,8871647,,ERQUELINNES-VILLAGE,,50.310179999999995,4.13231,,,0,S8871647,,Belgium
1647,8871662,,SOLRE-SUR-SAMBRE,,50.31264,4.15843,,,0,S8871662,,Belgium
1651,8871670,,LABUISSIERE,,50.31633,4.186832,,,0,S8871670,,Belgium
1655,8871688,,FONTAINE VALMONT,,50.32117,4.212787,,,0,S8871688,,Belgium
1658,8871712,,LOBBES,,50.346470000000004,4.260957,,,0,S8871712,,Belgium
1661,8871811,,THUIN,,50.34274,4.28891,,,0,S8871811,,Belgium
1664,8871829,,HOURPES,,50.363690000000005,4.30874,,,0,S8871829,,Belgium
1668,8871837,,LANDELIES,,50.377309999999994,4.35098,,,0,S8871837,,Belgium
1672,8871852,,MARCHIENNE-ZONE,,50.39747,4.388764,,,0,S8871852,,Belgium
1685,8872009,,CHARLEROI-SUD,,50.404709999999994,4.43857,,,0,S8872009,,Belgium
1690,8872066,,CHARLEROI-OUEST,,50.41095,4.436652,,,0,S8872066,,Belgium
1694,8872306,,LODELINSART,,50.43245,4.46295,,,0,S8872306,,Belgium
1699,8872413,,FLEURUS,,50.48192,4.543746,,,0,S8872413,,Belgium
1703,8872520,,LIGNY,,50.51173,4.566134,,,0,S8872520,,Belgium
1707,8872553,,TILLY,,50.55808,4.552674,,,0,S8872553,,Belgium
1711,8872579,,VILLERS-LA-VILLE,,50.5781,4.533348,,,0,S8872579,,Belgium
1715,8872587,,LA ROCHE (BRABANT),,50.61034,4.53916,,,0,S8872587,,Belgium
1719,8872611,,FAUX,,50.621829999999996,4.54926,,,0,S8872611,,Belgium
1724,8873007,,WALCOURT,,50.25922,4.435877,,,0,S8873007,,Belgium
1728,8873122,,PHILIPPEVILLE,,50.19164,4.53596,,,0,S8873122,,Belgium
1731,8873239,,YVES-GOMEZEE,,50.236979999999996,4.500404,,,0,S8873239,,Belgium
1735,8873312,,PRY,,50.26928,4.428807,,,0,S8873312,,Belgium
1739,8873320,,BERZEE,,50.2856,4.405909,,,0,S8873320,,Belgium
1743,8873379,,COUR-SUR-HEURE,,50.30014,4.391492,,,0,S8873379,,Belgium
1747,8873387,,HAM-SUR-HEURE,,50.319559999999996,4.404698,,,0,S8873387,,Belgium
1753,8874005,,CHATELET,,50.4101,4.52186,,,0,S8874005,,Belgium
1759,8874054,,COUILLET,,50.392720000000004,4.468512,,,0,S8874054,,Belgium
1763,8874559,,LE CAMPINAIRE,,50.42383,4.542787,,,0,S8874559,,Belgium
1767,8874567,,FARCIENNES,,50.42915,4.55265,,,0,S8874567,,Belgium
1771,8874583,,AISEAU,,50.42953,4.58455,,,0,S8874583,,Belgium
1777,8874609,,TAMINES,,50.43223,4.608824,,,0,S8874609,,Belgium
1781,8874716,,AUVELAIS,,50.4492,4.630534,,,0,S8874716,,Belgium
1786,8874724,,JEMEPPE-SUR-SAMBRE,,50.45095,4.66263,,,0,S8874724,,Belgium
1790,8875002,,MARIEMBOURG,,50.095490000000005,4.52569,,,0,S8875002,,Belgium
1794,8875127,,COUVIN,,50.05632,4.4917,,,0,S8875127,,Belgium
1795,8879004,,ERQUELINNES-FRONTIERE,,50.30233,4.107929,,,0,,,France
1804,8881000,,MONS,,50.45386,3.942542,,,0,S8881000,,Belgium
1808,8881125,,GHLIN,,50.48741,3.90634,,,0,S8881125,,Belgium
1812,8881158,,ERBISOEUL,,50.507020000000004,3.887991,,,0,S8881158,,Belgium
1819,8881166,,JURBISE,,50.5305,3.91069,,,0,S8881166,,Belgium
1823,8881174,,MASNUY-SAINT-PIERRE,,50.53655,3.96214,,,0,S8881174,,Belgium
1827,8881190,,LENS,,50.55934,3.903226,,,0,S8881190,,Belgium
1831,8881315,,NIMY,,50.47164,3.956093,,,0,S8881315,,Belgium
1835,8881406,,OBOURG,,50.469879999999996,4.007808,,,0,S8881406,,Belgium
1839,8881430,,HAVRE,,50.47075,4.059987,,,0,S8881430,,Belgium
1843,8881455,,THIEU,,50.46954,4.09852,,,0,S8881455,,Belgium
1847,8881463,,BRACQUEGNIES,,50.47446,4.126349,,,0,S8881463,,Belgium
1852,8881505,,QUEVY,,50.34153,3.909489,,,0,S8881505,,Belgium
1856,8881562,,GENLY,,50.390640000000005,3.91164,,,0,S8881562,,Belgium
1860,8881570,,FRAMERIES,,50.40593,3.90659,,,0,S8881570,,Belgium
1865,8882107,,LA LOUVIERE- CENTRE,,50.478159999999995,4.17986,,,0,S8882107,,Belgium
1872,8882206,,LA LOUVIERE-SUD,,50.46498,4.190611,,,0,S8882206,,Belgium
1876,8882230,,MORLANWELZ,,50.458,4.24737,,,0,S8882230,,Belgium
1880,8882248,,CARNIERES,,50.447959999999995,4.263829,,,0,S8882248,,Belgium
1883,8882339,,LEVAL,,50.4308,4.21104,,,0,S8882339,,Belgium
1888,8882362,,BINCHE,,50.40876,4.17245,,,0,S8882362,,Belgium
1895,8882701,,MANAGE,,50.50611,4.23468,,,0,S8882701,,Belgium
1906,8883006,,BRAINE-LE-COMTE,,50.60508,4.13766,,,0,S8883006,,Belgium
1910,8883022,,HENNUYERES,,50.65101,4.17589,,,0,S8883022,,Belgium
1914,8883113,,SOIGNIES,,50.57277,4.067518,,,0,S8883113,,Belgium
1918,8883121,,NEUFVILLES,,50.5436,4.01067,,,0,S8883121,,Belgium
1922,8883212,,ECAUSSINNES,,50.56239,4.156637,,,0,S8883212,,Belgium
1926,8883220,,MARCHE-LEZ-ECAUSSINNES,,50.546170000000004,4.177102,,,0,S8883220,,Belgium
1930,8883238,,FAMILLEUREUX,,50.51936,4.21158,,,0,S8883238,,Belgium
1937,8883311,,ENGHIEN,,50.69727,4.047359,,,0,S8883311,,Belgium
1941,8883436,,SILLY,,50.66238,3.935861,,,0,S8883436,,Belgium
1945,8883808,,TUBIZE,,50.69171,4.20573,,,0,S8883808,,Belgium
1952,8884004,,SAINT-GHISLAIN,,50.442859999999996,3.820255,,,0,S8884004,,Belgium
1955,8884319,,BOUSSU,,50.43638,3.797027,,,0,S8884319,,Belgium
1958,8884327,,HAININ,,50.428020000000004,3.766893,,,0,S8884327,,Belgium
1963,8884335,,QUIEVRAIN,,50.410109999999996,3.68608,,,0,S8884335,,Belgium
1966,8884350,,THULIN,,50.42333,3.744708,,,0,S8884350,,Belgium
1970,8884541,,QUAREGNON,,50.44983,3.856541,,,0,S8884541,,Belgium
1974,8884566,,JEMAPPES,,50.45258,3.885583,,,0,S8884566,,Belgium
1978,8884632,,VILLE-POMMEROEUL,,50.46454,3.724245,,,0,S8884632,,Belgium
1982,8884640,,HARCHIES,,50.48257,3.698768,,,0,S8884640,,Belgium
1987,8884715,,BLATON,,50.50546,3.666308,,,0,S8884715,,Belgium
1991,8884855,,PERUWELZ,,50.5137,3.592777,,,0,S8884855,,Belgium
1995,8884889,,CALLENELLE,,50.527359999999994,3.526178,,,0,S8884889,,Belgium
2003,8885001,,TOURNAI,,50.61313,3.39694,,,0,S8885001,,Belgium
2007,8885068,,FROYENNES,,50.62989,3.354835,,,0,S8885068,,Belgium
2011,8885522,,ANTOING,,50.56963,3.45131,,,0,S8885522,,Belgium
2015,8885530,,MAUBRAY,,50.54756,3.495523,,,0,S8885530,,Belgium
2022,8885704,,MOUSCRON,,50.741,3.228449,,,0,S8885704,,Belgium
2026,8885753,,HERSEAUX,,50.7139,3.245961,,,0,S8885753,,Belgium
2033,8886009,,ATH,,50.626940000000005,3.777428,,,0,S8886009,,Belgium
2037,8886041,,MAFFLE,,50.61435,3.800117,,,0,S8886041,,Belgium
2041,8886058,,MEVERGNIES-ATTRE,,50.60011,3.833919,,,0,S8886058,,Belgium
2045,8886066,,BRUGELETTE,,50.594229999999996,3.852551,,,0,S8886066,,Belgium
2049,8886074,,CAMBRON-CASTEAU,,50.58676,3.87481,,,0,S8886074,,Belgium
2054,8886348,,LEUZE,,50.600609999999996,3.616876,,,0,S8886348,,Belgium
2059,8886504,,LESSINES,,50.71201,3.836434,,,0,S8886504,,Belgium
2063,8886546,,ACREN,,50.7331,3.84709,,,0,S8886546,,Belgium
2067,8886553,,HOURAING,,50.70306,3.835174,,,0,S8886553,,Belgium
2071,8886561,,PAPIGNIES,,50.68658,3.82341,,,0,S8886561,,Belgium
2075,8886587,,REBAIX,,50.66124,3.793624,,,0,S8886587,,Belgium
2076,8889003,,QUEVY-FRONTIERE,,50.327709999999996,3.908753,,,0,,,Belgium
2077,8889011,,MOUSCRON-FRONTIERE,,50.72172,3.196086,,,0,,,Belgium
2078,8889045,,BLANDAIN-FRONTIERE,,50.617490000000004,3.26373,,,0,,,Belgium
2090,8891009,,BRUGES,,51.19723,3.21673,,,0,S8891009,,Belgium
2094,8891033,,BRUGES-SAINT-PIERRE,,51.22312,3.201796,,,0,S8891033,,Belgium
2098,8891116,,OOSTKAMP,,51.154109999999996,3.25747,,,0,S8891116,,Belgium
2102,8891124,,BEERNEM,,51.128009999999996,3.32989,,,0,S8891124,,Belgium
2106,8891132,,MARIA-AALTER,,51.10761,3.38673,,,0,S8891132,,Belgium
2112,8891140,,AALTER,,51.0923,3.447848,,,0,S8891140,,Belgium
2116,8891157,,BELLEM,,51.083909999999996,3.48737,,,0,S8891157,,Belgium
2120,8891165,,HANSBEKE,,51.073209999999996,3.53621,,,0,S8891165,,Belgium
2123,8891173,,ZEEBRUGGE-STRAND,,51.3305,3.184028,,,0,S8891173,,Belgium
2127,8891264,,ZEDELGEM,,51.12705,3.164142,,,0,S8891264,,Belgium
2131,8891314,,TORHOUT,,51.06471,3.10587,,,0,S8891314,,Belgium
2140,8891405,,BLANKENBERGE,,51.31243,3.13386,,,0,S8891405,,Belgium
2143,8891553,,ZEEBRUGGE-DORP,,51.32638,3.195171,,,0,S8891553,,Belgium
2147,8891629,,LISSEWEGE,,51.294709999999995,3.19451,,,0,S8891629,,Belgium
2151,8891645,,HEIST,,51.33398,3.239182,,,0,S8891645,,Belgium
2155,8891652,,DUINBERGEN,,51.3382,3.263591,,,0,S8891652,,Belgium
2160,8891660,,KNOKKE,,51.3399,3.28519,,,0,S8891660,,Belgium
2170,8891702,,OSTENDE,,51.22821,2.92581,,,0,S8891702,,Belgium
2183,8892007,,GAND-SAINT-PIERRE,,51.0359,3.710673,,,0,S8892007,,Belgium
2189,8892031,,TRONCHIENNES,,51.047290000000004,3.655201,,,0,S8892031,,Belgium
2195,8892056,,LANDEGEM,,51.06431,3.576856,,,0,S8892056,,Belgium
2201,8892080,,DE PINTE,,50.99706,3.650467,,,0,S8892080,,Belgium
2208,8892106,,DEINZE,,50.97826,3.534435,,,0,S8892106,,Belgium
2215,8892205,,LICHTERVELDE,,51.02516,3.127209,,,0,S8892205,,Belgium
2219,8892254,,TIELT,,50.990840000000006,3.33034,,,0,S8892254,,Belgium
2223,8892288,,AARSELE,,50.98446,3.41836,,,0,S8892288,,Belgium
2227,8892304,,FURNES,,51.07387,2.66994,,,0,S8892304,,Belgium
2230,8892320,,COXYDE,,51.0792,2.652773,,,0,S8892320,,Belgium
2235,8892338,,LA PANNE,,51.0774,2.601966,,,0,S8892338,,Belgium
2239,8892403,,KORTEMARK,,51.02525,3.043456,,,0,S8892403,,Belgium
2243,8892452,,DIXMUDE,,51.03272,2.868947,,,0,S8892452,,Belgium
2250,8892601,,AUDENARDE,,50.850120000000004,3.600388,,,0,S8892601,,Belgium
2253,8892627,,EINE,,50.87043,3.623777,,,0,S8892627,,Belgium
2257,8892635,,ZINGEM,,50.90803,3.646381,,,0,S8892635,,Belgium
2261,8892643,,GAVERE-ASPER,,50.93002,3.639728,,,0,S8892643,,Belgium
2264,8892650,,EKE-NAZARETH,,50.960770000000004,3.627836,,,0,S8892650,,Belgium
2268,8892692,,SINT-DENIJS-BOEKEL,,50.8743,3.6984,,,0,S8892692,,Belgium
2272,8892734,,ANZEGEM,,50.82639,3.495013,,,0,S8892734,,Belgium
2276,8892908,,RENAIX,,50.742509999999996,3.60255,,,0,S8892908,,Belgium
2282,8893013,,MERELBEKE,,51.01753,3.76889,,,0,S8893013,,Belgium
2286,8893039,,MELLE,,51.00281,3.79709,,,0,S8893039,,Belgium
2290,8893047,,GONTRODE,,50.9802,3.801671,,,0,S8893047,,Belgium
2294,8893054,,LANDSKOUTER,,50.97055,3.791148,,,0,S8893054,,Belgium
2298,8893062,,MOORTSELE,,50.953520000000005,3.78134,,,0,S8893062,,Belgium
2302,8893070,,SCHELDEWINDEKE,,50.93707,3.777844,,,0,S8893070,,Belgium
2306,8893120,,GAND-DAMPOORT,,51.05637,3.74059,,,0,S8893120,,Belgium
2310,8893179,,GENTBRUGGE,,51.03864,3.756326,,,0,S8893179,,Belgium
2314,8893211,,WONDELGEM,,51.088359999999994,3.719075,,,0,S8893211,,Belgium
2317,8893252,,EVERGEM,,51.10758,3.701381,,,0,S8893252,,Belgium
2320,8893260,,SLEIDINGE,,51.1266,3.667527,,,0,S8893260,,Belgium
2331,8893401,,TERMONDE,,51.02278,4.10143,,,0,S8893401,,Belgium
2335,8893443,,SINT-GILLIS,,51.0217,4.117831,,,0,S8893443,,Belgium
2339,8893518,,OUDEGEM,,51.015229999999995,4.064472,,,0,S8893518,,Belgium
2343,8893526,,SCHOONAARDE,,51.00315,4.011095,,,0,S8893526,,Belgium
2347,8893534,,WICHELEN,,51.00196,3.969195,,,0,S8893534,,Belgium
2351,8893542,,SCHELLEBELLE,,51.00315,3.92137,,,0,S8893542,,Belgium
2355,8893559,,WETTEREN,,51.0016,3.88188,,,0,S8893559,,Belgium
2359,8893567,,KWATRECHT,,50.99175,3.829591,,,0,S8893567,,Belgium
2363,8893583,,SERSKAMP,,50.9844,3.95936,,,0,S8893583,,Belgium
2367,8893708,,EEKLO,,51.181329999999996,3.574518,,,0,S8893708,,Belgium
2370,8893815,,WAARSCHOOT,,51.15461,3.61535,,,0,S8893815,,Belgium
2374,8894151,,BEERVELDE,,51.08753,3.879383,,,0,S8894151,,Belgium
2381,8894201,,LOKEREN,,51.108059999999995,3.987794,,,0,S8894201,,Belgium
2385,8894235,,ZELE,,51.07325,4.042001,,,0,S8894235,,Belgium
2389,8894425,,SINAAI,,51.1434,4.06894,,,0,S8894425,,Belgium
2393,8894433,,BELSELE,,51.15099,4.08861,,,0,S8894433,,Belgium
2401,8894508,,SAINT-NICOLAS,,51.17147,4.142963,,,0,S8894508,,Belgium
2405,8894672,,TAMISE,,51.12608,4.221349,,,0,S8894672,,Belgium
2409,8894714,,NIEUWKERKEN-WAAS,,51.18561,4.185904,,,0,S8894714,,Belgium
2413,8894748,,BEVEREN,,51.20834,4.259525,,,0,S8894748,,Belgium
2417,8894755,,MELSELE,,51.21071,4.286767,,,0,S8894755,,Belgium
2421,8894821,,ZWIJNDRECHT,,51.21411,4.329776,,,0,S8894821,,Belgium
2430,8895000,,ALOST,,50.942820000000005,4.039649,,,0,S8895000,,Belgium
2434,8895067,,LEDE,,50.9709,3.98498,,,0,S8895067,,Belgium
2438,8895091,,EREMBODEGEM,,50.91962,4.055451,,,0,S8895091,,Belgium
2441,8895125,,ALOST KERREBROEK,,50.94838,4.024412,,,0,S8895125,,Belgium
2450,8895208,,ZOTTEGEM,,50.8691,3.81441,,,0,S8895208,,Belgium
2454,8895232,,MUNKZWALM,,50.875679999999996,3.733242,,,0,S8895232,,Belgium
2458,8895240,,BALEGEM-ZUID,,50.90051,3.80587,,,0,S8895240,,Belgium
2462,8895257,,BALEGEM-DORP,,50.91961,3.791423,,,0,S8895257,,Belgium
2466,8895422,,HILLEGEM,,50.8913,3.85747,,,0,S8895422,,Belgium
2470,8895430,,HERZELE,,50.897220000000004,3.880616,,,0,S8895430,,Belgium
2474,8895448,,TERHAGEN,,50.90165,3.896657,,,0,S8895448,,Belgium
2479,8895455,,BURST,,50.90719,3.922418,,,0,S8895455,,Belgium
2482,8895463,,BAMBRUGGE,,50.91377,3.935715,,,0,S8895463,,Belgium
2485,8895471,,ERPE-MERE,,50.9286,3.96246,,,0,S8895471,,Belgium
2488,8895489,,VIJFHUIZEN,,50.94325,3.98125,,,0,S8895489,,Belgium
2496,8895505,,GRAMMONT,,50.77113,3.872326,,,0,S8895505,,Belgium
2500,8895570,,LIERDE,,50.81624,3.826561,,,0,S8895570,,Belgium
2504,8895612,,VIANE-MOERBEKE,,50.751979999999996,3.91734,,,0,S8895612,,Belgium
2508,8895620,,GAMMERAGES,,50.74392,3.965726,,,0,S8895620,,Belgium
2512,8895638,,TOLLEMBEEK,,50.73552,3.992826,,,0,S8895638,,Belgium
2516,8895646,,HERNE,,50.72371,4.014578,,,0,S8895646,,Belgium
2520,8895711,,SCHENDELBEKE,,50.79785,3.899285,,,0,S8895711,,Belgium
2524,8895729,,IDEGEM,,50.80188,3.921556,,,0,S8895729,,Belgium
2528,8895737,,ZANDBERGEN,,50.80699,3.957652,,,0,S8895737,,Belgium
2532,8895745,,APPELTERRE,,50.81307,3.972107,,,0,S8895745,,Belgium
2536,8895752,,EICHEM,,50.82399,3.993748,,,0,S8895752,,Belgium
2540,8895760,,NINOVE,,50.83951,4.026137,,,0,S8895760,,Belgium
2544,8895778,,OKEGEM,,50.85772,4.054554,,,0,S8895778,,Belgium
2555,8895802,,DENDERLEEUW,,50.89193,4.07183,,,0,S8895802,,Belgium
2561,8895836,,LIEDEKERKE,,50.882529999999996,4.09529,,,0,S8895836,,Belgium
2565,8895844,,IDDERGEM,,50.87688,4.068488,,,0,S8895844,,Belgium
2569,8895851,,WELLE,,50.90327,4.050617,,,0,S8895851,,Belgium
2573,8895869,,HAALTERT,,50.90684,4.023957,,,0,S8895869,,Belgium
2577,8895877,,EDE,,50.91105,3.987525,,,0,S8895877,,Belgium
2587,8896008,,COURTRAI,,50.8245,3.264548,,,0,S8896008,,Belgium
2591,8896115,,HARELBEKE,,50.85587,3.314007,,,0,S8896115,,Belgium
2596,8896149,,WAREGEM,,50.89246,3.42551,,,0,S8896149,,Belgium
2600,8896230,,VICHTE,,50.833659999999995,3.391627,,,0,S8896230,,Belgium
2604,8896305,,MENIN,,50.799490000000006,3.11379,,,0,S8896305,,Belgium
2608,8896370,,WEVELGEM,,50.81152,3.183519,,,0,S8896370,,Belgium
2612,8896388,,BISSEGEM,,50.82585,3.224208,,,0,S8896388,,Belgium
2616,8896396,,WERVIK,,50.781859999999995,3.04698,,,0,S8896396,,Belgium
2620,8896412,,COMINES,,50.77207,2.999286,,,0,S8896412,,Belgium
2624,8896503,,YPRES,,50.8474,2.87659,,,0,S8896503,,Belgium
2629,8896735,,POPERINGE,,50.85445,2.736345,,,0,S8896735,,Belgium
2634,8896800,,ROULERS,,50.94903,3.130415,,,0,S8896800,,Belgium
2638,8896909,,IZEGEM,,50.92115,3.212089,,,0,S8896909,,Belgium
2642,8896925,,INGELMUNSTER,,50.91433,3.255416,,,0,S8896925,,Belgium
