stop_id,stop_code,stop_name,stop_lat,stop_lon,location_type,parent_station,stop_timezone,wheelchair_boarding,platform_code,zone_id,country
stoparea:37036,lillee,LILLE EUROPE,50.639444,3.075,1,,Europe/Amsterdam,0.0,,,France
stoparea:18059,gerp,GRONINGEN EUROPAPARK,53.20470770000001,6.5858114,1,,Europe/Amsterdam,0.0,,,Netherlands
stoparea:111951,buende,BUNDE (WESTF.),52.20217,8.57414,1,,Europe/Amsterdam,0.0,,,Germany
stoparea:345453,amf,AMERSFOORT CENTRAAL,52.1534182404,5.37398815155,1,,Europe/Amsterdam,0.0,,,Netherlands
stoparea:42566,ehw,ROSENDAHL-HOLTWICK,51.998474,7.122610000000001,1,,Europe/Amsterdam,0.0,,,Germany
stoparea:112037,mcgb,MONCHENGLADBACH HBF,51.196582,6.44618,1,,Europe/Amsterdam,0.0,,,Germany
stoparea:177367,fbnl,BRUSSELS AIRPORT - ZAVENTEM,50.896972872026396,4.48417222693341,1,,Europe/Amsterdam,0.0,,,Belgium
stoparea:68578,oeynh,BAD OEYNHAUSEN,52.207824,8.804008999999999,1,,Europe/Amsterdam,0.0,,,Germany
stoparea:165459,drp,DRONRYP,53.177806999999994,5.63474,1,,Europe/Amsterdam,0.0,,,Netherlands
stoparea:165460,shl,SCHIPHOL AIRPORT,52.309456010699996,4.76228356361,1,,Europe/Amsterdam,0.0,,,Netherlands
stoparea:232428,sgl,HOUTHEM-ST. GERLACH,50.87350351600001,5.79657554626,1,,Europe/Amsterdam,0.0,,,Netherlands
stoparea:17776,ampo,ALMERE POORT,52.342946600000005,5.1522517,1,,Europe/Amsterdam,0.0,,,Netherlands
stoparea:177837,utln,UTRECHT LUNETTEN,52.065879913100005,5.14361590147,1,,Europe/Amsterdam,0.0,,,Netherlands
stoparea:226043,kdffh,DUSSELDORF FLUGHAFEN,51.2915724,6.7869558,1,,Europe/Amsterdam,0.0,,,Germany
stoparea:298120,llzm,LANSINGERLAND-ZOETERMEER,52.042124,4.516875,1,,Europe/Amsterdam,0.0,,,Netherlands
stoparea:183059,ah,ARNHEM CENTRAAL,51.9853459706,5.89922368526,1,,Europe/Amsterdam,0.0,,,Netherlands
stoparea:153950,ebgo,STEINFURT-BORGHORST,52.119178000000005,7.396160000000001,1,,Europe/Amsterdam,0.0,,,Germany
stoparea:153951,ebft,STEINFURT-BURGSTEINFURT,52.147541,7.32919,1,,Europe/Amsterdam,0.0,,,Germany
stoparea:343748,flj,LIEGE-CARRE,50.640514648047294,5.56190574146765,1,,Europe/Amsterdam,0.0,,,Belgium
stoparea:343749,dtcp,DELFT CAMPUS,51.990856280900005,4.36479359865,1,,Europe/Amsterdam,0.0,,,Netherlands
stoparea:343750,flgp,LIEGE-SAINT-LAMBERT,50.646490899999996,5.5709686,1,,Europe/Amsterdam,0.0,,,Belgium
stoparea:216452,enbe,MUNSTER-HAGER,52.022358000000004,7.56262,1,,Europe/Amsterdam,0.0,,,Germany
stoparea:279880,eem,EEMSHAVEN,53.45881,6.829969999999999,1,,Europe/Amsterdam,0.0,,,Netherlands
stoparea:279985,stp,LONDON ST. PANCRAS INT.,51.53054,-0.12515,1,,Europe/London,0.0,,,United Kingdom
stoparea:30380,nsch,BAD NIEUWESCHANS,53.1848281929,7.20052957535,1,,Europe/Amsterdam,0.0,,,Netherlands
stoparea:30382,mtn,MAASTRICHT NOORD,50.870688,5.717336,1,,Europe/Amsterdam,0.0,,,Netherlands
stoparea:30393,jenbac,JENBACH,47.388199,11.77466,1,,Europe/Amsterdam,0.0,,,Austria
stoparea:30398,innsb,INNSBRUCK HBF,47.264072,11.39819,1,,Europe/Amsterdam,0.0,,,Austria
stoparea:30400,hvsm,HILVERSUM MEDIA PARK,52.237997471999996,5.1739114522900005,1,,Europe/Amsterdam,0.0,,,Netherlands
stoparea:30401,kufst,KUFSTEIN,47.583022,12.16495,1,,Europe/Amsterdam,0.0,,,Austria
stoparea:235573,bielef,BIELEFELD HBF,52.029209,8.532264999999999,1,,Europe/Amsterdam,0.0,,,Germany
stoparea:235574,zlsh,ZWOLLE STADSHAGEN,52.5279,6.051,1,,Europe/Amsterdam,0.0,,,Netherlands
stoparea:235575,bsks,BOSKOOP SNIJDELWIJK,52.067640000000004,4.64628,1,,Europe/Amsterdam,0.0,,,Netherlands
stoparea:40205,berhbl,BERLIN HBF,52.525631000000004,13.36951,1,,Europe/Amsterdam,0.0,,,Germany
stoparea:32550,fmz,MAINZ HBF,50.001107,8.258713,1,,Europe/Amsterdam,0.0,,,Germany
stoparea:28351,mars,MARSEILLE-ST-CHARLES,43.3033199718,5.38106918335,1,,Europe/Amsterdam,0.0,,,France
stoparea:28352,avtgv,AVIGNON TGV,43.9216371283,4.7862625122099995,1,,Europe/Amsterdam,0.0,,,France
stoparea:28356,valtgv,VALENCE TGV,44.991667,4.978611,1,,Europe/Amsterdam,0.0,,,France
stoparea:367720,amst,AMSTETTEN NOE,48.121629999999996,14.877560999999998,1,,Europe/Amsterdam,0.0,,,Austria
stoparea:367721,linz,LINZ HBF,48.290309,14.291764,1,,Europe/Amsterdam,0.0,,,Austria
stoparea:367722,pass,PASSAU HBF,48.573617999999996,13.450425,1,,Europe/Amsterdam,0.0,,,Germany
stoparea:367723,polten,ST. POLTEN HBF,48.208335,15.624260999999999,1,,Europe/Amsterdam,0.0,,,Austria
stoparea:367724,regenb,REGENSBURG HBF,49.011590999999996,12.099258,1,,Europe/Amsterdam,0.0,,,Germany
stoparea:367726,wels,WELS HBF,48.166097,14.026245000000001,1,,Europe/Amsterdam,0.0,,,Austria
stoparea:367725,wbf,WIEN HBF,48.1850101,16.3778549,1,,Europe/Amsterdam,0.0,,,Austria
stoparea:295946,aixtgv,AIX-EN-PROVENCE TGV,43.455,5.31722,1,,Europe/Amsterdam,0.0,,,France
stoparea:345454,ehv,EINDHOVEN CENTRAAL,51.4423758354,5.47994077206,1,,Europe/Amsterdam,0.0,,,Netherlands
stoparea:17787,hdb,HARDENBERG,52.5723204212,6.62763118744,1,,Europe/Amsterdam,0.0,,,Netherlands
stoparea:17788,hde,HARDE ('T),52.4091965174,5.8928963541999995,1,,Europe/Amsterdam,0.0,,,Netherlands
stoparea:17789,hdg,HURDEGARYP,53.2187973494,5.9345322847399995,1,,Europe/Amsterdam,0.0,,,Netherlands
stoparea:17790,bsk,BOSKOOP,52.0775015065,4.64693248272,1,,Europe/Amsterdam,0.0,,,Netherlands
stoparea:17791,fffm,FRANKFURT (M) HBF,50.10712,8.66383,1,,Europe/Amsterdam,0.0,,,Germany
stoparea:17775,hon,HOLTEN,52.2840106801,6.42132639885,1,,Europe/Amsterdam,0.0,,,Netherlands
stoparea:17777,hor,HOLLANDSCHE RADING,52.1780651566,5.17916053534,1,,Europe/Amsterdam,0.0,,,Netherlands
stoparea:17778,nvd,NIJVERDAL,52.365560518100004,6.470518112180001,1,,Europe/Amsterdam,0.0,,,Netherlands
stoparea:17779,dron,DRONTEN,52.5344196434,5.71999311447,1,,Europe/Amsterdam,0.0,,,Netherlands
stoparea:17780,gwd,WILDERT,51.428119,4.46176,1,,Europe/Amsterdam,0.0,,,Belgium
stoparea:17781,dvd,DUIVENDRECHT,52.3235699597,4.9364554882,1,,Europe/Amsterdam,0.0,,,Netherlands
stoparea:17783,dvc,DEVENTER COLMSCHATE,52.250341077799995,6.215263009069999,1,,Europe/Amsterdam,0.0,,,Netherlands
stoparea:17784,dvn,DUIVEN,51.9434348706,6.01421535015,1,,Europe/Amsterdam,0.0,,,Netherlands
stoparea:17785,nvp,NIEUW VENNEP,52.259016991,4.64559137821,1,,Europe/Amsterdam,0.0,,,Netherlands
stoparea:17792,brusz,BRUSSEL-ZUID/MIDI,50.8348902401,4.33505058289,1,,Europe/Amsterdam,0.0,,,Belgium
stoparea:17794,brusc,BRUSSEL-CENTRAAL,50.8454052127,4.3572807312,1,,Europe/Amsterdam,0.0,,,Belgium
stoparea:17795,eabg,ALTENBERGE,52.052245,7.48124,1,,Europe/Amsterdam,0.0,,,Germany
stoparea:17796,vhp,VROOMSHOOP,52.4573594348,6.56962573528,1,,Europe/Amsterdam,0.0,,,Netherlands
stoparea:17797,brusn,BRUSSEL-NOORD,50.860550195600005,4.36170101166,1,,Europe/Amsterdam,0.0,,,Belgium
stoparea:17799,gr,GORINCHEM,51.833573145699994,4.96739208698,1,,Europe/Amsterdam,0.0,,,Netherlands
stoparea:17800,gs,GOES,51.4984444727,3.89053344727,1,,Europe/Amsterdam,0.0,,,Netherlands
stoparea:17801,gp,GELDROP,51.4201184276,5.55048286915,1,,Europe/Amsterdam,0.0,,,Netherlands
stoparea:17802,eun,UNNA,51.53902,7.692410000000001,1,,Europe/Amsterdam,0.0,,,Germany
stoparea:17803,gw,GROU-JIRNSUM,53.0900326142,5.8224105835,1,,Europe/Amsterdam,0.0,,,Netherlands
stoparea:17804,gz,GILZE-RIJEN,51.5841365983,4.92407441139,1,,Europe/Amsterdam,0.0,,,Netherlands
stoparea:17805,kpn,KAMPEN,52.559774713900005,5.921617448330001,1,,Europe/Amsterdam,0.0,,,Netherlands
stoparea:17806,gd,GOUDA,52.0169549682,4.705415368080001,1,,Europe/Amsterdam,0.0,,,Netherlands
stoparea:17807,gk,GRIJPSKERK,53.2558943685,6.30971431732,1,,Europe/Amsterdam,0.0,,,Netherlands
stoparea:17808,gn,GRONINGEN,53.2109352492,6.56407356262,1,,Europe/Amsterdam,0.0,,,Netherlands
stoparea:17809,go,GOOR,52.2304148646,6.58494114876,1,,Europe/Amsterdam,0.0,,,Netherlands
stoparea:17810,lkr,EKEREN,51.281742815600005,4.43411529064,1,,Europe/Amsterdam,0.0,,,Belgium
stoparea:17811,maria,SINT-MARIABURG,51.2917156499,4.43477511406,1,,Europe/Amsterdam,0.0,,,Belgium
stoparea:17812,mes,MEERSSEN,50.882730476400006,5.750677585599999,1,,Europe/Amsterdam,0.0,,,Netherlands
stoparea:17813,www,WINTERSWIJK WEST,51.9747826474,6.70339822769,1,,Europe/Amsterdam,0.0,,,Netherlands
stoparea:17814,hamm,HAMM (WESTF.),51.678039,7.8078199999999995,1,,Europe/Amsterdam,0.0,,,Germany
stoparea:17816,tpsw,TIEL PASSEWAAIJ,51.874166047799996,5.39250612259,1,,Europe/Amsterdam,0.0,,,Netherlands
stoparea:17817,did,DIDAM,51.9334206498,6.13243639469,1,,Europe/Amsterdam,0.0,,,Netherlands
stoparea:17818,bdm,BEDUM,53.3068360625,6.592842936519999,1,,Europe/Amsterdam,0.0,,,Netherlands
stoparea:17819,sdtb,SLIEDRECHT BAANHOEK,51.8283783503,4.74259614944,1,,Europe/Amsterdam,0.0,,,Netherlands
stoparea:17820,bdg,BODEGRAVEN,52.0817082095,4.74578797817,1,,Europe/Amsterdam,0.0,,,Netherlands
stoparea:17821,bde,BUNDE,50.896897377600006,5.73650747538,1,,Europe/Amsterdam,0.0,,,Netherlands
stoparea:17822,frp,PUURS,51.07714,4.28259,1,,Europe/Amsterdam,0.0,,,Belgium
stoparea:17823,eghm,EYGELSHOVEN MARKT,50.896141173900006,6.0579407215100005,1,,Europe/Amsterdam,0.0,,,Netherlands
stoparea:17824,kwo,WUPPERTAL OBERBARMEN,51.273869,7.221489999999999,1,,Europe/Amsterdam,0.0,,,Germany
stoparea:17825,hvl,HOEVELAKEN,52.166456598500005,5.4587888717699995,1,,Europe/Amsterdam,0.0,,,Netherlands
stoparea:17826,gnn,GRONINGEN NOORD,53.23014499999999,6.556310000000001,1,,Europe/Amsterdam,0.0,,,Netherlands
stoparea:17827,alm,ALMERE CENTRUM,52.375016243599994,5.21760463715,1,,Europe/Amsterdam,0.0,,,Netherlands
stoparea:17830,egh,EYGELSHOVEN,50.8900504954,6.0457688570000006,1,,Europe/Amsterdam,0.0,,,Netherlands
stoparea:17831,hvs,HILVERSUM,52.2263832024,5.18169522285,1,,Europe/Amsterdam,0.0,,,Netherlands
stoparea:17832,bressx,BRESSOUX,50.6445622404,5.612640380859999,1,,Europe/Amsterdam,0.0,,,Belgium
stoparea:17833,emte,METELEN LAND,52.162414,7.254410000000001,1,,Europe/Amsterdam,0.0,,,Germany
stoparea:17834,hlgh,HARLINGEN HAVEN,53.174874790299995,5.41134059429,1,,Europe/Amsterdam,0.0,,,Netherlands
stoparea:17835,htnc,HOUTEN CASTELLUM,52.0185132087,5.17889499664,1,,Europe/Amsterdam,0.0,,,Netherlands
stoparea:17836,berch,ANTWERPEN-BERCHEM,51.1992334366,4.43240404129,1,,Europe/Amsterdam,0.0,,,Belgium
stoparea:17841,sgn,SCHAGEN,52.785308326099994,4.80504333973,1,,Europe/Amsterdam,0.0,,,Netherlands
stoparea:17843,ut,UTRECHT CENTRAAL,52.089451330600006,5.10987102985,1,,Europe/Amsterdam,0.0,,,Netherlands
stoparea:17844,drh,DRIEHUIS,52.4424560103,4.638209938999999,1,,Europe/Amsterdam,0.0,,,Netherlands
stoparea:17846,wad,WADDINXVEEN,52.0443384188,4.649866819380001,1,,Europe/Amsterdam,0.0,,,Netherlands
stoparea:17847,bgn,BERGEN OP ZOOM,51.494991254700004,4.29585814476,1,,Europe/Amsterdam,0.0,,,Netherlands
stoparea:17848,ls,STENDAL,52.594739000000004,11.854389999999999,1,,Europe/Amsterdam,0.0,,,Germany
stoparea:17849,kpnz,KAMPEN ZUID,52.533616915100005,5.91265082359,1,,Europe/Amsterdam,0.0,,,Netherlands
stoparea:17852,ns,NUNSPEET,52.371019,5.78469,1,,Europe/Amsterdam,0.0,,,Netherlands
stoparea:17853,lwc,LEEUWARDEN CAMMINGHABUREN,53.202186465,5.842564702030001,1,,Europe/Amsterdam,0.0,,,Netherlands
stoparea:17855,vtn,VLEUTEN,52.102617154899995,5.00842452049,1,,Europe/Amsterdam,0.0,,,Netherlands
stoparea:17856,nh,NUTH,50.9198331019,5.892357230190001,1,,Europe/Amsterdam,0.0,,,Netherlands
stoparea:17857,nm,NIJMEGEN,51.8432285026,5.85303068161,1,,Europe/Amsterdam,0.0,,,Netherlands
stoparea:17858,na,NIEUW AMSTERDAM,52.7185665751,6.84881687164,1,,Europe/Amsterdam,0.0,,,Netherlands
stoparea:17860,gdm,GELDERMALSEN,51.882627262,5.27143657207,1,,Europe/Amsterdam,0.0,,,Netherlands
stoparea:17862,dtch,DOETINCHEM DE HUET,51.9592321562,6.25997006893,1,,Europe/Amsterdam,0.0,,,Netherlands
stoparea:17864,zvt,ZANDVOORT AAN ZEE,52.3757694703,4.53125953674,1,,Europe/Amsterdam,0.0,,,Netherlands
stoparea:17865,hdr,DEN HELDER,52.9568211084,4.760636687280001,1,,Europe/Amsterdam,0.0,,,Netherlands
stoparea:17866,wsm,WINSUM,53.330136150200005,6.519897580149999,1,,Europe/Amsterdam,0.0,,,Netherlands
stoparea:17868,klp,VEENENDAAL-DE KLOMP,52.0459352966,5.573965609069999,1,,Europe/Amsterdam,0.0,,,Netherlands
stoparea:17870,rd,ROODESCHOOL,53.4191078355,6.76065802574,1,,Europe/Amsterdam,0.0,,,Netherlands
stoparea:17871,ktr,KESTEREN,51.931581600200005,5.583168268200001,1,,Europe/Amsterdam,0.0,,,Netherlands
stoparea:17872,zvb,ZEVENBERGEN,51.6413925608,4.6099528670300005,1,,Europe/Amsterdam,0.0,,,Netherlands
stoparea:17875,rsn,RIJSSEN,52.3115845407,6.519398689269999,1,,Europe/Amsterdam,0.0,,,Netherlands
stoparea:17876,rheine,RHEINE,52.276107,7.4352,1,,Europe/Amsterdam,0.0,,,Germany
stoparea:17877,amfs,AMERSFOORT SCHOTHORST,52.1747146623,5.4040235281,1,,Europe/Amsterdam,0.0,,,Netherlands
stoparea:17878,srn,SUSTEREN,51.060703240600006,5.86264371872,1,,Europe/Amsterdam,0.0,,,Netherlands
stoparea:17879,ahbf,AACHEN HBF,50.768073,6.09053,1,,Europe/Amsterdam,0.0,,,Germany
stoparea:17880,elet,LETTE (KR COESFELD),51.892503000000005,7.18695,1,,Europe/Amsterdam,0.0,,,Germany
stoparea:17881,ahp,ARNHEM VELPERPOORT,51.985012291000004,5.91968894005,1,,Europe/Amsterdam,0.0,,,Netherlands
stoparea:17883,ahz,ARNHEM ZUID,51.955175912600005,5.85187196732,1,,Europe/Amsterdam,0.0,,,Netherlands
stoparea:17884,kbd,KRABBENDIJKE,51.433193251300004,4.11706209183,1,,Europe/Amsterdam,0.0,,,Netherlands
stoparea:17886,kbk,KLARENBEEK,52.1780470643,6.08409762383,1,,Europe/Amsterdam,0.0,,,Netherlands
stoparea:17887,kmr,KLIMMEN-RANSDAAL,50.8665262336,5.89029729366,1,,Europe/Amsterdam,0.0,,,Netherlands
stoparea:17888,rtn,ROTTERDAM NOORD,51.9422708488,4.4816413521800005,1,,Europe/Amsterdam,0.0,,,Netherlands
stoparea:17890,hgz,HOOGEZAND-SAPPEMEER,53.1598342138,6.771064996719999,1,,Europe/Amsterdam,0.0,,,Netherlands
stoparea:17891,rtb,ROTTERDAM BLAAK,51.9202727655,4.48890209198,1,,Europe/Amsterdam,0.0,,,Netherlands
stoparea:17892,hgv,HOOGEVEEN,52.7335209628,6.47298038006,1,,Europe/Amsterdam,0.0,,,Netherlands
stoparea:17893,wfm,WARFFUM,53.3902518525,6.56668066978,1,,Europe/Amsterdam,0.0,,,Netherlands
stoparea:17894,rtd,ROTTERDAM CENTRAAL,51.924383443800004,4.4697457552,1,,Europe/Amsterdam,0.0,,,Netherlands
stoparea:17895,rtz,ROTTERDAM ZUID,51.90379153520001,4.5108854770699995,1,,Europe/Amsterdam,0.0,,,Netherlands
stoparea:17896,hgl,HENGELO,52.262146077,6.793595552439999,1,,Europe/Amsterdam,0.0,,,Netherlands
stoparea:17897,kmb,MONTABAUR,50.444846000000005,7.82565,1,,Europe/Amsterdam,0.0,,,Germany
stoparea:17898,ovn,OVERVEEN,52.391080111499996,4.60678517818,1,,Europe/Amsterdam,0.0,,,Netherlands
stoparea:17899,almo,ALMERE OOSTVAARDERS,52.4031487234,5.30027031898,1,,Europe/Amsterdam,0.0,,,Netherlands
stoparea:17900,ehzw,HOLZWICKEDE,51.50508,7.62052,1,,Europe/Amsterdam,0.0,,,Germany
stoparea:17901,laa,DEN HAAG LAAN V NOI,52.078990052200005,4.34311330318,1,,Europe/Amsterdam,0.0,,,Netherlands
stoparea:17903,cvm,CHEVREMONT,50.8755650167,6.05967879295,1,,Europe/Amsterdam,0.0,,,Netherlands
stoparea:17905,zdk,ZAANDAM KOGERVELD,52.4567628717,4.81926977634,1,,Europe/Amsterdam,0.0,,,Netherlands
stoparea:17906,omn,OMMEN,52.5098808529,6.41733527184,1,,Europe/Amsterdam,0.0,,,Netherlands
stoparea:17907,bl,BEILEN,52.854941008900006,6.52100265026,1,,Europe/Amsterdam,0.0,,,Netherlands
stoparea:17908,bn,BORNE,52.2984197949,6.74899578094,1,,Europe/Amsterdam,0.0,,,Netherlands
stoparea:17909,bh,BAD BENTHEIM,52.309659357,7.15778589249,1,,Europe/Amsterdam,0.0,,,Germany
stoparea:17910,bk,BEEK-ELSLOO,50.946919934300006,5.78601032495,1,,Europe/Amsterdam,0.0,,,Netherlands
stoparea:17911,bd,BREDA,51.595045049300005,4.779873490330001,1,,Europe/Amsterdam,0.0,,,Netherlands
stoparea:17912,bf,BAFLO,53.361062566099996,6.51864767075,1,,Europe/Amsterdam,0.0,,,Netherlands
stoparea:17915,odz,OLDENZAAL,52.3064221046,6.93367660046,1,,Europe/Amsterdam,0.0,,,Netherlands
stoparea:17917,bv,BEVERWIJK,52.478350042299994,4.65630412102,1,,Europe/Amsterdam,0.0,,,Netherlands
stoparea:17918,ahpr,ARNHEM PRESIKHAAF,51.9876783549,5.943040251729999,1,,Europe/Amsterdam,0.0,,,Netherlands
stoparea:17919,bp,BUITENPOST,53.256298728400004,6.14438831806,1,,Europe/Amsterdam,0.0,,,Netherlands
stoparea:17920,br,BLERICK,51.3725037143,6.1551278829600005,1,,Europe/Amsterdam,0.0,,,Netherlands
stoparea:17921,rhn,RHENEN,51.9585875454,5.578318834299999,1,,Europe/Amsterdam,0.0,,,Netherlands
stoparea:17922,bnk,BUNNIK,52.0632960099,5.19551664591,1,,Europe/Amsterdam,0.0,,,Netherlands
stoparea:17923,bnn,BARNEVELD NOORD,52.1609712126,5.59876799583,1,,Europe/Amsterdam,0.0,,,Netherlands
stoparea:17925,bnc,BARNEVELD CENTRUM,52.1396188273,5.59076964855,1,,Europe/Amsterdam,0.0,,,Netherlands
stoparea:17926,wupph,WUPPERTAL HBF,51.254306,7.14935,1,,Europe/Amsterdam,0.0,,,Germany
stoparea:17928,dmn,DIEMEN,52.345476356099994,4.966796636580001,1,,Europe/Amsterdam,0.0,,,Netherlands
stoparea:17931,aml,ALMELO,52.356941500699996,6.65620207787,1,,Europe/Amsterdam,0.0,,,Netherlands
stoparea:17933,esrt,SCHWERTE (RUHR),51.442219,7.55917,1,,Europe/Amsterdam,0.0,,,Germany
stoparea:17934,mth,MARTENSHOEK,53.1609084858,6.74005866051,1,,Europe/Amsterdam,0.0,,,Netherlands
stoparea:17935,cas,CASTRICUM,52.546051031000005,4.65877175331,1,,Europe/Amsterdam,0.0,,,Netherlands
stoparea:17936,edo,DORTMUND HBF,51.517853,7.45931,1,,Europe/Amsterdam,0.0,,,Germany
stoparea:17937,edn,EIJSDEN,50.7720763187,5.7098221778900005,1,,Europe/Amsterdam,0.0,,,Netherlands
stoparea:17938,mtr,MAASTRICHT RANDWYCK,50.837451450399996,5.71757376194,1,,Europe/Amsterdam,0.0,,,Netherlands
stoparea:17939,edd,DORTMUND-DERNE,51.567228,7.52836,1,,Europe/Amsterdam,0.0,,,Germany
stoparea:17940,hil,HILLEGOM,52.3031075295,4.56605315208,1,,Europe/Amsterdam,0.0,,,Netherlands
stoparea:17941,amr,ALKMAAR,52.6377769745,4.740804433819999,1,,Europe/Amsterdam,0.0,,,Netherlands
stoparea:17943,edc,EDE CENTRUM,52.0433914829,5.6683498621,1,,Europe/Amsterdam,0.0,,,Netherlands
stoparea:17944,avat,AMERSFOORT VATHORST,52.192192999999996,5.43342,1,,Europe/Amsterdam,0.0,,,Netherlands
stoparea:17945,hnk,HOORN KERSENBOOGERD,52.653322851000006,5.08487418294,1,,Europe/Amsterdam,0.0,,,Netherlands
stoparea:17947,vem,VOORST-EMPE,52.157746135100005,6.143540740009999,1,,Europe/Amsterdam,0.0,,,Netherlands
stoparea:17948,brn,BAARN,52.2083561771,5.28172016144,1,,Europe/Amsterdam,0.0,,,Netherlands
stoparea:17949,dvnk,DE VINK,52.1472033554,4.45632733405,1,,Europe/Amsterdam,0.0,,,Netherlands
stoparea:17951,hnp,HINDELOOPEN,52.9464625417,5.42302966118,1,,Europe/Amsterdam,0.0,,,Netherlands
stoparea:17952,assp,AMSTERDAM SCIENCE PARK,52.352315169700006,4.95049953461,1,,Europe/Amsterdam,0.0,,,Netherlands
stoparea:17953,apdo,APELDOORN OSSEVELD,52.2158570972,6.006415486340001,1,,Europe/Amsterdam,0.0,,,Netherlands
stoparea:17954,apdm,APELDOORN DE MATEN,52.2051476843,6.000638008119999,1,,Europe/Amsterdam,0.0,,,Netherlands
stoparea:17955,eahs,AHAUS,52.081615,7.01669,1,,Europe/Amsterdam,0.0,,,Germany
stoparea:17956,sptn,SANTPOORT NOORD,52.4337391671,4.63278114796,1,,Europe/Amsterdam,0.0,,,Netherlands
stoparea:17957,sdt,SLIEDRECHT,51.8294757054,4.77819979191,1,,Europe/Amsterdam,0.0,,,Netherlands
stoparea:17958,rsw,RIJSWIJK,52.039392354600004,4.31972444057,1,,Europe/Amsterdam,0.0,,,Netherlands
stoparea:17960,sda,SCHEEMDA,53.165485097799994,6.97806179523,1,,Europe/Amsterdam,0.0,,,Netherlands
stoparea:17961,pt,PUTTEN,52.2652355454,5.575749278069999,1,,Europe/Amsterdam,0.0,,,Netherlands
stoparea:17962,sptz,SANTPOORT ZUID,52.4197536249,4.631375670430001,1,,Europe/Amsterdam,0.0,,,Netherlands
stoparea:17963,rsd,ROOSENDAAL,51.5403131107,4.459016919140001,1,,Europe/Amsterdam,0.0,,,Netherlands
stoparea:17964,sdm,SCHIEDAM CENTRUM,51.921847605100005,4.40959990025,1,,Europe/Amsterdam,0.0,,,Netherlands
stoparea:17965,bonn,BONN HBF,50.732021,7.09708,1,,Europe/Amsterdam,0.0,,,Germany
stoparea:17967,mg,MANTGUM,53.1297114948,5.7133466005299995,1,,Europe/Amsterdam,0.0,,,Netherlands
stoparea:17968,ma,AUGSBURG HBF,48.365473,10.8856,1,,Europe/Amsterdam,0.0,,,Germany
stoparea:17969,mt,MAASTRICHT,50.8497439807,5.70544481277,1,,Europe/Amsterdam,0.0,,,Netherlands
stoparea:17970,mp,MEPPEL,52.6918939124,6.197606027130001,1,,Europe/Amsterdam,0.0,,,Netherlands
stoparea:17971,gv,DEN HAAG HS,52.07013222729999,4.3222028017000005,1,,Europe/Amsterdam,0.0,,,Netherlands
stoparea:17972,bsmz,BUSSUM ZUID,52.265496548,5.16300290823,1,,Europe/Amsterdam,0.0,,,Netherlands
stoparea:17973,mz,MAARHEEZE,51.3038965117,5.6306219100999995,1,,Europe/Amsterdam,0.0,,,Netherlands
stoparea:17974,rai,AMSTERDAM RAI,52.336961586899996,4.8903134465199996,1,,Europe/Amsterdam,0.0,,,Netherlands
stoparea:17975,gbg,GRAMSBERGEN,52.6102796771,6.67618989944,1,,Europe/Amsterdam,0.0,,,Netherlands
stoparea:17976,est,ELST,51.9172503083,5.8549618721000005,1,,Europe/Amsterdam,0.0,,,Netherlands
stoparea:17977,vsv,VARSSEVELD,51.9373234191,6.45880758762,1,,Europe/Amsterdam,0.0,,,Netherlands
stoparea:17978,vst,VOORSCHOTEN,52.1262416276,4.43370893598,1,,Europe/Amsterdam,0.0,,,Netherlands
stoparea:17980,gbr,GLANERBRUG,52.218706588900005,6.973620057110001,1,,Europe/Amsterdam,0.0,,,Netherlands
stoparea:17982,ese,ENSCHEDE DE ESCHMARKE,52.2212782051,6.951212882999999,1,,Europe/Amsterdam,0.0,,,Netherlands
stoparea:17983,arn,ARNEMUIDEN,51.501444953000004,3.66984665394,1,,Europe/Amsterdam,0.0,,,Netherlands
stoparea:17985,duisb,DUISBURG HBF,51.430006,6.7747399999999995,1,,Europe/Amsterdam,0.0,,,Germany
stoparea:17986,fn,FRANEKER,53.1824911512,5.54953336716,1,,Europe/Amsterdam,0.0,,,Netherlands
stoparea:17987,fnaf,FRANKFURT FLUGHAFEN FERNB,50.053196,8.570139999999999,1,,Europe/Amsterdam,0.0,,,Germany
stoparea:17988,hno,HEINO,52.4268589853,6.22245937586,1,,Europe/Amsterdam,0.0,,,Netherlands
stoparea:17989,emn,EMMEN,52.7906369563,6.899371147160001,1,,Europe/Amsterdam,0.0,,,Netherlands
stoparea:17990,eml,ERMELO,52.3011672153,5.614469647409999,1,,Europe/Amsterdam,0.0,,,Netherlands
stoparea:17991,rat,RAALTE,52.3910408266,6.27850413322,1,,Europe/Amsterdam,0.0,,,Netherlands
stoparea:17992,emnz,EMMEN ZUID,52.74882091479999,6.87420129776,1,,Europe/Amsterdam,0.0,,,Netherlands
stoparea:17993,hann,HANNOVER HBF,52.376726,9.74095,1,,Europe/Amsterdam,0.0,,,Germany
stoparea:17994,kswe,SCHWELM,51.290649,7.2907,1,,Europe/Amsterdam,0.0,,,Germany
stoparea:17996,zd,ZAANDAM,52.4384469017,4.813830256459999,1,,Europe/Amsterdam,0.0,,,Netherlands
stoparea:17997,mannhe,MANNHEIM HBF,49.479633,8.46986,1,,Europe/Amsterdam,0.0,,,Germany
stoparea:17999,zb,ZUIDBROEK,53.1595511676,6.867983937259999,1,,Europe/Amsterdam,0.0,,,Netherlands
stoparea:18000,zl,ZWOLLE,52.50556115569999,6.09058320522,1,,Europe/Amsterdam,0.0,,,Netherlands
stoparea:18002,zh,ZUIDHORN,53.248136977799994,6.40636503696,1,,Europe/Amsterdam,0.0,,,Netherlands
stoparea:18003,zv,ZEVENAAR,51.9230369693,6.073105931280001,1,,Europe/Amsterdam,0.0,,,Netherlands
stoparea:18004,zp,ZUTPHEN,52.144563669700005,6.19427740574,1,,Europe/Amsterdam,0.0,,,Netherlands
stoparea:18005,ust,USQUERT,53.4010715416,6.60928755999,1,,Europe/Amsterdam,0.0,,,Netherlands
stoparea:18006,lls,LELYSTAD CENTRUM,52.5080149133,5.47285705805,1,,Europe/Amsterdam,0.0,,,Netherlands
stoparea:18007,o,OSS,51.7651308763,5.53030729294,1,,Europe/Amsterdam,0.0,,,Netherlands
stoparea:18008,pmo,PURMEREND OVERWHERE,52.5113075984,4.96743634343,1,,Europe/Amsterdam,0.0,,,Netherlands
stoparea:18009,hlms,HAARLEM SPAARNWOUDE,52.3830456338,4.67106699944,1,,Europe/Amsterdam,0.0,,,Netherlands
stoparea:18010,lkp,KAPELLEN,51.312666,4.43268,1,,Europe/Amsterdam,0.0,,,Belgium
stoparea:18012,pmr,PURMEREND,52.5036950327,4.95416879654,1,,Europe/Amsterdam,0.0,,,Netherlands
stoparea:18013,hmh,HELMOND 'T HOUT,51.4678673875,5.6306996941600005,1,,Europe/Amsterdam,0.0,,,Netherlands
stoparea:18014,pmw,PURMEREND WEIDEVENNE,52.4963754906,4.93502184749,1,,Europe/Amsterdam,0.0,,,Netherlands
stoparea:18015,hmn,HEMMEN-DODEWAARD,51.922287623900004,5.673440694809999,1,,Europe/Amsterdam,0.0,,,Netherlands
stoparea:18016,bdpb,BREDA-PRINSENBEEK,51.605291207600004,4.72233474255,1,,Europe/Amsterdam,0.0,,,Netherlands
stoparea:18017,atwlb,ANTWERPEN-LUCHTBAL,51.244890000000005,4.42507,1,,Europe/Amsterdam,0.0,,,Belgium
stoparea:18018,mech,MECHELEN,51.0176154241,4.48370933533,1,,Europe/Amsterdam,0.0,,,Belgium
stoparea:18019,st,SOEST,52.1727407626,5.31043052673,1,,Europe/Amsterdam,0.0,,,Netherlands
stoparea:18020,sn,SCHINNEN,50.9388465849,5.87498992682,1,,Europe/Amsterdam,0.0,,,Netherlands
stoparea:18021,tbr,TILBURG REESHOF,51.573855661,4.99356508255,1,,Europe/Amsterdam,0.0,,,Netherlands
stoparea:18022,sm,SWALMEN,51.2363554455,6.03306055069,1,,Europe/Amsterdam,0.0,,,Netherlands
stoparea:18023,sk,SNEEK,53.032529645699995,5.65191328526,1,,Europe/Amsterdam,0.0,,,Netherlands
stoparea:18024,sd,SOESTDIJK,52.1839020129,5.299819707869999,1,,Europe/Amsterdam,0.0,,,Netherlands
stoparea:18025,almm,ALMERE MUZIEKWIJK,52.3677060023,5.19068598747,1,,Europe/Amsterdam,0.0,,,Netherlands
stoparea:18027,tl,TIEL,51.88957056,5.423238873480001,1,,Europe/Amsterdam,0.0,,,Netherlands
stoparea:18028,ldl,LEIDEN LAMMENSCHANS,52.146538819499995,4.49349403381,1,,Europe/Amsterdam,0.0,,,Netherlands
stoparea:18029,ldm,LEERDAM,51.89451332270001,5.09360611439,1,,Europe/Amsterdam,0.0,,,Netherlands
stoparea:18030,almb,ALMERE BUITEN,52.394154041899995,5.277938246730001,1,,Europe/Amsterdam,0.0,,,Netherlands
stoparea:18031,tg,TEGELEN,51.3393406368,6.14325374365,1,,Europe/Amsterdam,0.0,,,Netherlands
stoparea:18032,zbm,ZALTBOMMEL,51.8078253545,5.26313245296,1,,Europe/Amsterdam,0.0,,,Netherlands
stoparea:18034,almp,ALMERE PARKWIJK,52.376735546599996,5.244641304019999,1,,Europe/Amsterdam,0.0,,,Netherlands
stoparea:18037,dtc,DOETINCHEM,51.9585098609,6.29611819983,1,,Europe/Amsterdam,0.0,,,Netherlands
stoparea:18039,ledn,LEIDEN CENTRAAL,52.1663529517,4.4820678234099995,1,,Europe/Amsterdam,0.0,,,Netherlands
stoparea:18040,ac,ABCOUDE,52.2796589706,4.976457953450001,1,,Europe/Amsterdam,0.0,,,Netherlands
stoparea:18041,zlw,LAGE ZWALUWE,51.69038312560001,4.66302573681,1,,Europe/Amsterdam,0.0,,,Netherlands
stoparea:18042,aw,AACHEN WEST,50.780327,6.07072,1,,Europe/Amsterdam,0.0,,,Germany
stoparea:18044,bmr,BOXMEER,51.644378627799995,5.93949437141,1,,Europe/Amsterdam,0.0,,,Netherlands
stoparea:18045,kmw,KOUDUM-MOLKWERUM,52.902818,5.41069,1,,Europe/Amsterdam,0.0,,,Netherlands
stoparea:18046,gnd,HARDINXVELD-GIESSENDAM,51.8304669489,4.8359182477,1,,Europe/Amsterdam,0.0,,,Netherlands
stoparea:18048,bmn,BRUMMEN,52.0911289946,6.14723145962,1,,Europe/Amsterdam,0.0,,,Netherlands
stoparea:18049,ww,WINTERSWIJK,51.967729,6.71552,1,,Europe/Amsterdam,0.0,,,Netherlands
stoparea:18050,fkth,KALMTHOUT,51.391035363,4.466806054119999,1,,Europe/Amsterdam,0.0,,,Belgium
stoparea:18051,rta,ROTTERDAM ALEXANDER,51.9516764051,4.55200374126,1,,Europe/Amsterdam,0.0,,,Netherlands
stoparea:18052,hbzm,HARDINXVELD BLAUWE ZOOM,51.8296381515,4.81545031071,1,,Europe/Amsterdam,0.0,,,Netherlands
stoparea:18053,wt,WEERT,51.2487474211,5.7030791044199995,1,,Europe/Amsterdam,0.0,,,Netherlands
stoparea:18056,ssh,SASSENHEIM,52.2176910471,4.528512954709999,1,,Europe/Amsterdam,0.0,,,Netherlands
stoparea:18057,vd,VORDEN,52.107154261999995,6.317567825319999,1,,Europe/Amsterdam,0.0,,,Netherlands
stoparea:18058,vndw,VEENENDAAL WEST,52.0282674849,5.531567931180001,1,,Europe/Amsterdam,0.0,,,Netherlands
stoparea:18060,ana,ANNA PAULOWNA,52.8676984353,4.81146991253,1,,Europe/Amsterdam,0.0,,,Netherlands
stoparea:18061,kma,KROMMENIE-ASSENDELFT,52.4943583305,4.76149231195,1,,Europe/Amsterdam,0.0,,,Netherlands
stoparea:18062,htn,HOUTEN,52.0349077579,5.16753315926,1,,Europe/Amsterdam,0.0,,,Netherlands
stoparea:18063,hto,HERTOGENB ('S) OOST,51.700796999999994,5.31849,1,,Europe/Amsterdam,0.0,,,Netherlands
stoparea:18064,vndc,VEENENDAAL CENTRUM,52.0200763466,5.549058616159999,1,,Europe/Amsterdam,0.0,,,Netherlands
stoparea:18065,fvs,VISE,50.741848,5.695880000000001,1,,Europe/Amsterdam,0.0,,,Belgium
stoparea:18066,hdrz,DEN HELDER ZUID,52.93291899999999,4.76434,1,,Europe/Amsterdam,0.0,,,Netherlands
stoparea:18067,gvmw,DEN HAAG MOERWIJK,52.0547047349,4.30855035782,1,,Europe/Amsterdam,0.0,,,Netherlands
stoparea:18069,vdl,VOERENDAAL,50.886696,5.92961,1,,Europe/Amsterdam,0.0,,,Netherlands
stoparea:18070,vdm,VEENDAM,53.1052844297,6.886475086210001,1,,Europe/Amsterdam,0.0,,,Netherlands
stoparea:18072,had,HEEMSTEDE-AERDENHOUT,52.359464154099996,4.6067905426,1,,Europe/Amsterdam,0.0,,,Netherlands
stoparea:18075,amri,ALMELO DE RIET,52.3422351688,6.666598320009999,1,,Europe/Amsterdam,0.0,,,Netherlands
stoparea:18077,amrn,ALKMAAR NOORD,52.643806999999995,4.76386,1,,Europe/Amsterdam,0.0,,,Netherlands
stoparea:18079,ebeo,BOENEN,51.598055,7.75735,1,,Europe/Amsterdam,0.0,,,Germany
stoparea:18080,wc,WIJCHEN,51.8112332637,5.72993338108,1,,Europe/Amsterdam,0.0,,,Netherlands
stoparea:18081,eprn,PREUSSEN,51.588875,7.539339999999999,1,,Europe/Amsterdam,0.0,,,Germany
stoparea:18082,wf,WOLFHEZE,52.005745262,5.79187631607,1,,Europe/Amsterdam,0.0,,,Netherlands
stoparea:18083,wd,WOERDEN,52.0850970204,4.892585277559999,1,,Europe/Amsterdam,0.0,,,Netherlands
stoparea:18084,vp,VELP,51.9950942656,5.98092913628,1,,Europe/Amsterdam,0.0,,,Netherlands
stoparea:18085,dmnz,DIEMEN ZUID,52.3303859358,4.9559068679800005,1,,Europe/Amsterdam,0.0,,,Netherlands
stoparea:18086,wk,WORKUM,52.9722525479,5.45658677816,1,,Europe/Amsterdam,0.0,,,Netherlands
stoparea:18087,wh,WIJHE,52.3911259437,6.140863895419999,1,,Europe/Amsterdam,0.0,,,Netherlands
stoparea:18089,wl,WEHL,51.9573859001,6.21393531561,1,,Europe/Amsterdam,0.0,,,Netherlands
stoparea:18090,wm,WORMERVEER,52.4892743989,4.79257375002,1,,Europe/Amsterdam,0.0,,,Netherlands
stoparea:18091,wr,WEENER,53.163606912700004,7.3427242040600005,1,,Europe/Amsterdam,0.0,,,Germany
stoparea:18092,ws,WINSCHOTEN,53.1394131106,7.03460544348,1,,Europe/Amsterdam,0.0,,,Netherlands
stoparea:18093,wp,WEESP,52.3124601929,5.04355609417,1,,Europe/Amsterdam,0.0,,,Netherlands
stoparea:18094,wv,WOLVEGA,52.879838635,6.004948317999999,1,,Europe/Amsterdam,0.0,,,Netherlands
stoparea:18095,nmd,NIJMEGEN DUKENBURG,51.8238792462,5.794875025750001,1,,Europe/Amsterdam,0.0,,,Netherlands
stoparea:18096,btl,BOXTEL,51.5850365697,5.3188097477,1,,Europe/Amsterdam,0.0,,,Netherlands
stoparea:18097,wz,WEZEP,52.4535216762,6.0023331642199995,1,,Europe/Amsterdam,0.0,,,Netherlands
stoparea:18098,nmh,NIJMEGEN HEYENDAAL,51.82674718689999,5.867731869219999,1,,Europe/Amsterdam,0.0,,,Netherlands
stoparea:18099,cps,CAPELLE SCHOLLEVAAR,51.954106418,4.58413928747,1,,Europe/Amsterdam,0.0,,,Netherlands
stoparea:18100,nml,NIJMEGEN LENT,51.864146308900004,5.859446525569999,1,,Europe/Amsterdam,0.0,,,Netherlands
stoparea:18101,fnzd,ANTWERPEN-ZUID,51.197762,4.39015,1,,Europe/Amsterdam,0.0,,,Belgium
stoparea:18102,wadn,WADDINXVEEN NOORD,52.055314152200005,4.64821457863,1,,Europe/Amsterdam,0.0,,,Netherlands
stoparea:18104,hfd,HOOFDDORP,52.292745627200006,4.6985328197500005,1,,Europe/Amsterdam,0.0,,,Netherlands
stoparea:18106,hz,HERZOGENRATH,50.8708765783,6.094708442690001,1,,Europe/Amsterdam,0.0,,,Germany
stoparea:18107,basels,BASEL SBB,47.547348,7.588989999999999,1,,Europe/Amsterdam,0.0,,,Switzerland
stoparea:18108,ht,HERTOGENBOSCH ('S),51.690333243699996,5.29457330704,1,,Europe/Amsterdam,0.0,,,Netherlands
stoparea:18109,hr,HEERENVEEN,52.9605259964,5.915949940680001,1,,Europe/Amsterdam,0.0,,,Netherlands
stoparea:18110,hn,HOORN,52.644856912600005,5.05458533764,1,,Europe/Amsterdam,0.0,,,Netherlands
stoparea:18111,hm,HELMOND,51.475633029399994,5.6617462635,1,,Europe/Amsterdam,0.0,,,Netherlands
stoparea:18113,hk,HEEMSKERK,52.494787816599995,4.68630462885,1,,Europe/Amsterdam,0.0,,,Netherlands
stoparea:18114,baselb,BASEL BAD BF,47.567364000000005,7.60778,1,,Europe/Amsterdam,0.0,,,Switzerland
stoparea:18116,hd,HARDERWIJK,52.337836736899995,5.62037587166,1,,Europe/Amsterdam,0.0,,,Netherlands
stoparea:18117,asdm,AMSTERDAM MUIDERPOORT,52.360987505,4.93115544319,1,,Europe/Amsterdam,0.0,,,Netherlands
stoparea:18118,hb,HOENSBROEK,50.9057070066,5.930243432519999,1,,Europe/Amsterdam,0.0,,,Netherlands
stoparea:18119,lut,GELEEN-LUTTERADE,50.975413036999996,5.82459390163,1,,Europe/Amsterdam,0.0,,,Netherlands
stoparea:18120,krd,KERKRADE CENTRUM,50.8611901592,6.05727016926,1,,Europe/Amsterdam,0.0,,,Netherlands
stoparea:18121,krg,KRUININGEN-YERSEKE,51.465431162899996,4.0362739563,1,,Europe/Amsterdam,0.0,,,Netherlands
stoparea:18122,hze,HEEZE,51.3850330688,5.569612383840001,1,,Europe/Amsterdam,0.0,,,Netherlands
stoparea:18123,ekz,ENKHUIZEN,52.699709527299994,5.28884679079,1,,Europe/Amsterdam,0.0,,,Netherlands
stoparea:18124,es,ENSCHEDE,52.222361,6.89025,1,,Europe/Amsterdam,0.0,,,Netherlands
stoparea:18125,em,EMMERICH,51.834329,6.25409,1,,Europe/Amsterdam,0.0,,,Germany
stoparea:18126,sog,SCHIN OP GEUL,50.8561040681,5.871768593790001,1,,Europe/Amsterdam,0.0,,,Netherlands
stoparea:18127,ed,EDE-WAGENINGEN,52.0281585657,5.6714880466499995,1,,Europe/Amsterdam,0.0,,,Netherlands
stoparea:18128,za,ZETTEN-ANDELST,51.9197682096,5.72335392237,1,,Europe/Amsterdam,0.0,,,Netherlands
stoparea:18129,ec,ECHT,51.1005138636,5.878970324990001,1,,Europe/Amsterdam,0.0,,,Netherlands
stoparea:18131,ddzd,DORDRECHT ZUID,51.790684059700006,4.67181265354,1,,Europe/Amsterdam,0.0,,,Netherlands
stoparea:18132,rlb,ROTTERDAM LOMBARDIJEN,51.8804682307,4.53098058701,1,,Europe/Amsterdam,0.0,,,Netherlands
stoparea:18133,elgd,LEGDEN,52.035022999999995,7.08846,1,,Europe/Amsterdam,0.0,,,Germany
stoparea:18136,swd,SAUWERD,53.2915018915,6.540132164959999,1,,Europe/Amsterdam,0.0,,,Netherlands
stoparea:18137,eseb,SELM-BEIFANG,51.692988,7.45489,1,,Europe/Amsterdam,0.0,,,Germany
stoparea:18138,mrb,MARIENBERG,52.5090123764,6.574062108990001,1,,Europe/Amsterdam,0.0,,,Netherlands
stoparea:18139,bzl,KAPELLE-BIEZELINGE,51.480487554899995,3.95702004433,1,,Europe/Amsterdam,0.0,,,Netherlands
stoparea:18140,mrn,MAARN,52.064361249099996,5.37041008472,1,,Europe/Amsterdam,0.0,,,Netherlands
stoparea:18141,ecmf,COESFELD (WESTF),51.939058,7.1642399999999995,1,,Europe/Amsterdam,0.0,,,Germany
stoparea:18142,esem,SELM,51.708034000000005,7.453110000000001,1,,Europe/Amsterdam,0.0,,,Germany
stoparea:18144,bsd,BEESD,51.8992801072,5.19542276859,1,,Europe/Amsterdam,0.0,,,Netherlands
stoparea:18145,hrlw,HEERLEN WOONBOULEVARD,50.8955761278,5.95094203949,1,,Europe/Amsterdam,0.0,,,Netherlands
stoparea:18146,asdz,AMSTERDAM ZUID,52.3388200309,4.87286567688,1,,Europe/Amsterdam,0.0,,,Netherlands
stoparea:18147,viers,VIERSEN,51.255028,6.4042699999999995,1,,Europe/Amsterdam,0.0,,,Germany
stoparea:18149,wdn,WIERDEN,52.3613904471,6.592279672619999,1,,Europe/Amsterdam,0.0,,,Netherlands
stoparea:18150,rv,REUVER,51.2830346253,6.07918918133,1,,Europe/Amsterdam,0.0,,,Netherlands
stoparea:18151,rs,ROSMALEN,51.715151026,5.369237959380001,1,,Europe/Amsterdam,0.0,,,Netherlands
stoparea:18152,rm,ROERMOND,51.192510104600004,5.99384665489,1,,Europe/Amsterdam,0.0,,,Netherlands
stoparea:18153,rl,RUURLO,52.0810538229,6.4495164156,1,,Europe/Amsterdam,0.0,,,Netherlands
stoparea:18155,rvs,RAVENSTEIN,51.7947783926,5.63749372959,1,,Europe/Amsterdam,0.0,,,Netherlands
stoparea:18156,rh,RHEDEN,52.010080895200005,6.03140830994,1,,Europe/Amsterdam,0.0,,,Netherlands
stoparea:18157,kko,KOBLENZ HBF,50.351088,7.58863,1,,Europe/Amsterdam,0.0,,,Germany
stoparea:18158,rf,FREIBURG (BREISGAU) HBF,47.997921000000005,7.841310000000001,1,,Europe/Amsterdam,0.0,,,Germany
stoparea:18159,otb,OOSTERBEEK,51.994915901800006,5.84069788456,1,,Europe/Amsterdam,0.0,,,Netherlands
stoparea:18160,rb,RILLAND-BATH,51.422613937399994,4.161050319669999,1,,Europe/Amsterdam,0.0,,,Netherlands
stoparea:18161,kw,KROPSWOLDE,53.1618315663,6.722211241719999,1,,Europe/Amsterdam,0.0,,,Netherlands
stoparea:18162,utzl,UTRECHT ZUILEN,52.102913711999996,5.0895050168000004,1,,Europe/Amsterdam,0.0,,,Netherlands
stoparea:18164,kn,KALDENKIRCHEN,51.32718,6.2027,1,,Europe/Amsterdam,0.0,,,Germany
stoparea:18165,ost,OLST,52.33571274729999,6.11323714256,1,,Europe/Amsterdam,0.0,,,Netherlands
stoparea:18166,lc,LOCHEM,52.166805376400006,6.426057815549999,1,,Europe/Amsterdam,0.0,,,Netherlands
stoparea:18167,lg,LANDGRAAF,50.8962291446,6.0196495056199995,1,,Europe/Amsterdam,0.0,,,Netherlands
stoparea:18168,gdr,GAANDEREN,51.93052312020001,6.348595619199999,1,,Europe/Amsterdam,0.0,,,Netherlands
stoparea:18169,ijt,IJLST,53.0147203138,5.616183578969999,1,,Europe/Amsterdam,0.0,,,Netherlands
stoparea:18170,odb,OUDENBOSCH,51.5878996933,4.53316658735,1,,Europe/Amsterdam,0.0,,,Netherlands
stoparea:18171,gdg,GOUDA GOVERWELLE,52.014660426300004,4.74246203899,1,,Europe/Amsterdam,0.0,,,Netherlands
stoparea:18172,lp,LOPPERSUM,53.3346530554,6.747525930399999,1,,Europe/Amsterdam,0.0,,,Netherlands
stoparea:18173,lw,LEEUWARDEN,53.1964793547,5.792959928509999,1,,Europe/Amsterdam,0.0,,,Netherlands
stoparea:18174,dln,DALEN,52.6945957245,6.75813943148,1,,Europe/Amsterdam,0.0,,,Netherlands
stoparea:18176,vry,VENRAY,51.5268451091,6.01389348507,1,,Europe/Amsterdam,0.0,,,Netherlands
stoparea:18177,ass,AMSTERDAM SLOTERDIJK,52.3885625372,4.83716011047,1,,Europe/Amsterdam,0.0,,,Netherlands
stoparea:18179,dei,DEINUM,53.18877547899999,5.72818994522,1,,Europe/Amsterdam,0.0,,,Netherlands
stoparea:18180,paris,PARIS-NORD,48.880506,2.3550299999999997,1,,Europe/Amsterdam,0.0,,,France
stoparea:18182,eepe,EPE (WESTF),52.1837112458,7.03027099371,1,,Europe/Amsterdam,0.0,,,Germany
stoparea:18183,tbg,TERBORG,51.9226168081,6.36395931244,1,,Europe/Amsterdam,0.0,,,Netherlands
stoparea:18184,asdl,AMSTERDAM LELYLAAN,52.3578899698,4.8340433836,1,,Europe/Amsterdam,0.0,,,Netherlands
stoparea:18186,asa,AMSTERDAM AMSTEL,52.346741305,4.91886556149,1,,Europe/Amsterdam,0.0,,,Netherlands
stoparea:18187,asb,AMSTERDAM BIJLMER ARENA,52.3122043862,4.94710922241,1,,Europe/Amsterdam,0.0,,,Netherlands
stoparea:18188,asd,AMSTERDAM CENTRAAL,52.3789197836,4.90088939667,1,,Europe/Amsterdam,0.0,,,Netherlands
stoparea:18189,bhv,BILTHOVEN,52.130412452,5.20533084869,1,,Europe/Amsterdam,0.0,,,Netherlands
stoparea:18190,g,GRONAU WESTF,52.2151537343,7.021738886830001,1,,Europe/Amsterdam,0.0,,,Germany
stoparea:18191,asn,ASSEN,52.9922606253,6.57095074654,1,,Europe/Amsterdam,0.0,,,Netherlands
stoparea:18192,tbu,TILBURG UNIVERSITEIT,51.5651563853,5.05010604858,1,,Europe/Amsterdam,0.0,,,Netherlands
stoparea:18193,hvsp,HILVERSUM SPORTPARK,52.21655716229999,5.18733859062,1,,Europe/Amsterdam,0.0,,,Netherlands
stoparea:18194,bspd,BERLIN-SPANDAU,52.534511,13.19752,1,,Europe/Amsterdam,0.0,,,Germany
stoparea:18195,twl,TWELLO,52.238316123400004,6.1006522178600004,1,,Europe/Amsterdam,0.0,,,Netherlands
stoparea:18196,std,SITTARD,51.0013602335,5.859071016310001,1,,Europe/Amsterdam,0.0,,,Netherlands
stoparea:18197,eop,OCHTRUP,52.201735,7.18261,1,,Europe/Amsterdam,0.0,,,Germany
stoparea:18198,stm,STEDUM,53.326201888599996,6.68717086315,1,,Europe/Amsterdam,0.0,,,Netherlands
stoparea:18199,stv,STAVOREN,52.8865572658,5.36007285118,1,,Europe/Amsterdam,0.0,,,Netherlands
stoparea:18200,bet,BEST,51.509764116499994,5.38915872574,1,,Europe/Amsterdam,0.0,,,Netherlands
stoparea:18203,hwd,HEERHUGOWAARD,52.6705238747,4.8238670826,1,,Europe/Amsterdam,0.0,,,Netherlands
stoparea:18204,ro,OFFENBURG,48.476438,7.94667,1,,Europe/Amsterdam,0.0,,,Germany
stoparea:18205,kwba,WUPPERTAL-BARMEN,51.267076,7.195989999999999,1,,Europe/Amsterdam,0.0,,,Germany
stoparea:18207,edkd,DORTMUND-KIRCHDERNE,51.546969,7.51024,1,,Europe/Amsterdam,0.0,,,Germany
stoparea:18208,andd,ANTWERPEN-NOORDERDOKKEN,51.261666999999996,4.427778,1,,Europe/Amsterdam,0.0,,,Belgium
stoparea:18210,wtv,WESTERVOORT,51.9634929655,5.9680652618400005,1,,Europe/Amsterdam,0.0,,,Netherlands
stoparea:18211,kboi,BOISHEIM,51.274429,6.27442,1,,Europe/Amsterdam,0.0,,,Germany
stoparea:18212,sbk,SPAUBEEK,50.9433338299,5.8493694663,1,,Europe/Amsterdam,0.0,,,Netherlands
stoparea:18214,nwk,NIEUWERKERK AD IJSSEL,51.965373675,4.616958796980001,1,,Europe/Amsterdam,0.0,,,Netherlands
stoparea:18217,gvc,DEN HAAG CENTRAAL,52.0811312949,4.324053525919999,1,,Europe/Amsterdam,0.0,,,Netherlands
stoparea:18219,gvm,DEN HAAG MARIAHOEVE,52.090586809499996,4.36898857355,1,,Europe/Amsterdam,0.0,,,Netherlands
stoparea:18220,hlm,HAARLEM,52.3880485284,4.638783931730001,1,,Europe/Amsterdam,0.0,,,Netherlands
stoparea:18221,hlo,HEILOO,52.600278153599994,4.70113992691,1,,Europe/Amsterdam,0.0,,,Netherlands
stoparea:18223,hlg,HARLINGEN,53.170479255100005,5.42507350445,1,,Europe/Amsterdam,0.0,,,Netherlands
stoparea:18224,bkg,BOVENKARSPEL-GROOTEBROEK,52.6950976222,5.23744627833,1,,Europe/Amsterdam,0.0,,,Netherlands
stoparea:18225,bkf,BOVENKARSPEL FLORA,52.6960944917,5.25372862816,1,,Europe/Amsterdam,0.0,,,Netherlands
stoparea:18227,atn,AALTEN,51.9213877311,6.5787345171,1,,Europe/Amsterdam,0.0,,,Netherlands
stoparea:18228,sknd,SNEEK NOORD,53.040092232700005,5.66286206245,1,,Europe/Amsterdam,0.0,,,Netherlands
stoparea:18229,op,OPHEUSDEN,51.9261615884,5.6371986866,1,,Europe/Amsterdam,0.0,,,Netherlands
stoparea:18230,bkl,BREUKELEN,52.17059898229999,4.9906200170499995,1,,Europe/Amsterdam,0.0,,,Netherlands
stoparea:18231,ow,OSS WEST,51.7583709192,5.5067038536099995,1,,Europe/Amsterdam,0.0,,,Netherlands
stoparea:18232,ot,OISTERWIJK,51.581949927,5.19344329834,1,,Europe/Amsterdam,0.0,,,Netherlands
stoparea:18234,flb,LIMBURG SUD,50.383239,8.09501,1,,Europe/Amsterdam,0.0,,,Germany
stoparea:18237,atw,ANTWERPEN-CENTRAAL,51.2154863992,4.42096710205,1,,Europe/Amsterdam,0.0,,,Belgium
stoparea:18238,etn,ETTEN-LEUR,51.575132570600005,4.63662743568,1,,Europe/Amsterdam,0.0,,,Netherlands
stoparea:18239,hmbv,HELMOND BRANDEVOORT,51.4621926876,5.607259869580001,1,,Europe/Amsterdam,0.0,,,Netherlands
stoparea:18242,hmbh,HELMOND BROUWHUIS,51.471278000000005,5.7005300000000005,1,,Europe/Amsterdam,0.0,,,Netherlands
stoparea:18243,kbry,BREYELL,51.295361,6.23999,1,,Europe/Amsterdam,0.0,,,Germany
stoparea:18244,ztmo,ZOETERMEER OOST,52.046446681400006,4.49200540781,1,,Europe/Amsterdam,0.0,,,Netherlands
stoparea:18245,stz,SOEST ZUID,52.1651782712,5.30300885439,1,,Europe/Amsterdam,0.0,,,Netherlands
stoparea:18246,ztm,ZOETERMEER,52.0476145962,4.47682678699,1,,Europe/Amsterdam,0.0,,,Netherlands
stoparea:18247,mdb,MIDDELBURG,51.4951983216,3.61801028252,1,,Europe/Amsterdam,0.0,,,Netherlands
stoparea:18248,hwzb,HALFWEG-ZWANENBURG,52.384722,4.75164,1,,Europe/Amsterdam,0.0,,,Netherlands
stoparea:18249,bll,BLOEMENDAAL,52.4039734714,4.6274971962,1,,Europe/Amsterdam,0.0,,,Netherlands
stoparea:18252,oberh,OBERHAUSEN HBF,51.47509,6.85198,1,,Europe/Amsterdam,0.0,,,Germany
stoparea:18253,ddrs,DORDRECHT STADSPOLDERS,51.802089,4.71666,1,,Europe/Amsterdam,0.0,,,Netherlands
stoparea:18255,obd,OBDAM,52.6780375892,4.90926325321,1,,Europe/Amsterdam,0.0,,,Netherlands
stoparea:18260,nkk,NIJKERK,52.2221129213,5.49343496561,1,,Europe/Amsterdam,0.0,,,Netherlands
stoparea:18261,hks,HOOGKARSPEL,52.690573223,5.18384769559,1,,Europe/Amsterdam,0.0,,,Netherlands
stoparea:18262,akl,ARKEL,51.872283169700005,4.99302327633,1,,Europe/Amsterdam,0.0,,,Netherlands
stoparea:18263,akm,AKKRUM,53.0476180204,5.84292411804,1,,Europe/Amsterdam,0.0,,,Netherlands
stoparea:18265,brd,BARENDRECHT,51.8555987842,4.5522773265800005,1,,Europe/Amsterdam,0.0,,,Netherlands
stoparea:18267,zwd,ZWIJNDRECHT,51.8157054426,4.64083850384,1,,Europe/Amsterdam,0.0,,,Netherlands
stoparea:18270,utt,UTRECHT TERWIJDE,52.1004522288,5.04108309746,1,,Europe/Amsterdam,0.0,,,Netherlands
stoparea:18271,utm,UTRECHT MALIEBAAN,52.0878922661,5.13117313385,1,,Europe/Amsterdam,0.0,,,Netherlands
stoparea:18273,uto,UTRECHT OVERVECHT,52.110307230100005,5.12517571449,1,,Europe/Amsterdam,0.0,,,Netherlands
stoparea:18274,ebok,BORK (WESTF),51.669851,7.456580000000001,1,,Europe/Amsterdam,0.0,,,Germany
stoparea:18275,utg,UITGEEST,52.521619925500005,4.702236950400001,1,,Europe/Amsterdam,0.0,,,Netherlands
stoparea:18276,neuss,NEUSS HBF,51.204862,6.68463,1,,Europe/Amsterdam,0.0,,,Germany
stoparea:18277,vb,VOORBURG,52.0666886919,4.359293729069999,1,,Europe/Amsterdam,0.0,,,Netherlands
stoparea:18278,vlb,VIERLINGSBEEK,51.5919690846,5.997092127799999,1,,Europe/Amsterdam,0.0,,,Netherlands
stoparea:18279,dzw,DELFZIJL WEST,53.332045482,6.906548738480001,1,,Europe/Amsterdam,0.0,,,Netherlands
stoparea:18280,vg,VUGHT,51.6555970917,5.2921405434599995,1,,Europe/Amsterdam,0.0,,,Netherlands
stoparea:18281,vh,VOORHOUT,52.2241207768,4.48449254036,1,,Europe/Amsterdam,0.0,,,Netherlands
stoparea:18282,vk,VALKENBURG,50.86920419810001,5.83277463913,1,,Europe/Amsterdam,0.0,,,Netherlands
stoparea:18283,ltn,LUNTEREN,52.0850871313,5.62413096428,1,,Europe/Amsterdam,0.0,,,Netherlands
stoparea:18284,vl,VENLO,51.3651057003,6.17127478123,1,,Europe/Amsterdam,0.0,,,Netherlands
stoparea:18285,luik,LIEGE-GUILLEMINS,50.6240657216,5.56723594666,1,,Europe/Amsterdam,0.0,,,Belgium
stoparea:18286,vs,VLISSINGEN,51.4441278741,3.5955709219,1,,Europe/Amsterdam,0.0,,,Netherlands
stoparea:18288,tb,TILBURG,51.5605476622,5.08345663548,1,,Europe/Amsterdam,0.0,,,Netherlands
stoparea:18289,bhdv,BOVEN-HARDINXVELD,51.8321244979,4.87825155258,1,,Europe/Amsterdam,0.0,,,Netherlands
stoparea:18290,vz,VRIEZENVEEN,52.4019213912,6.600519418719999,1,,Europe/Amsterdam,0.0,,,Netherlands
stoparea:18291,hagen,HAGEN HBF,51.361585,7.459389999999999,1,,Europe/Amsterdam,0.0,,,Germany
stoparea:18292,co,COEVORDEN,52.662984466400005,6.736043393609999,1,,Europe/Amsterdam,0.0,,,Netherlands
stoparea:18293,cl,CULEMBORG,51.947042484899995,5.2267670631400005,1,,Europe/Amsterdam,0.0,,,Netherlands
stoparea:18294,ck,CUIJK,51.727058061899996,5.8742845058399995,1,,Europe/Amsterdam,0.0,,,Netherlands
stoparea:18295,swk,STEENWIJK,52.790948381099994,6.1164611578,1,,Europe/Amsterdam,0.0,,,Netherlands
stoparea:18296,uhm,UITHUIZERMEEDEN,53.41406272850001,6.720408797259999,1,,Europe/Amsterdam,0.0,,,Netherlands
stoparea:18297,vss,VLISSINGEN SOUBURG,51.4648596839,3.59528660774,1,,Europe/Amsterdam,0.0,,,Netherlands
stoparea:18298,dld,DEN DOLDER,52.1402213242,5.2420797944099995,1,,Europe/Amsterdam,0.0,,,Netherlands
stoparea:18299,uhz,UITHUIZEN,53.409560632200005,6.67419433594,1,,Europe/Amsterdam,0.0,,,Netherlands
stoparea:18300,gln,GELEEN OOST,50.9674848366,5.843331813810001,1,,Europe/Amsterdam,0.0,,,Netherlands
stoparea:18301,ddn,DELDEN,52.2601793425,6.714647412300001,1,,Europe/Amsterdam,0.0,,,Netherlands
stoparea:18302,hglo,HENGELO OOST,52.2689912086,6.81961297989,1,,Europe/Amsterdam,0.0,,,Netherlands
stoparea:18303,hglg,HENGELO GEZONDHEIDSPARK,52.2616305974,6.767706871030001,1,,Europe/Amsterdam,0.0,,,Netherlands
stoparea:18304,apn,ALPHEN A/D RIJN,52.124734897399996,4.657559394840001,1,,Europe/Amsterdam,0.0,,,Netherlands
stoparea:18305,apd,APELDOORN,52.20954944060001,5.968596339229999,1,,Europe/Amsterdam,0.0,,,Netherlands
stoparea:18306,apg,APPINGEDAM,53.3258110056,6.86195969582,1,,Europe/Amsterdam,0.0,,,Netherlands
stoparea:18307,mas,MAARSSEN,52.1356842895,5.03282725811,1,,Europe/Amsterdam,0.0,,,Netherlands
stoparea:18308,ddr,DORDRECHT,51.8075467403,4.66774642467,1,,Europe/Amsterdam,0.0,,,Netherlands
stoparea:18309,dz,DELFZIJL,53.3336375943,6.923902630810001,1,,Europe/Amsterdam,0.0,,,Netherlands
stoparea:18310,ltv,LICHTENVOORDE-GROENLO,52.0121181345,6.59532666206,1,,Europe/Amsterdam,0.0,,,Netherlands
stoparea:18311,enow,NORDWALDE,52.077585,7.4617,1,,Europe/Amsterdam,0.0,,,Germany
stoparea:18313,dr,DIEREN,52.0447772359,6.10331296921,1,,Europe/Amsterdam,0.0,,,Netherlands
stoparea:18314,ksb,SIEGBURG,50.794052,7.20334,1,,Europe/Amsterdam,0.0,,,Germany
stoparea:18315,dv,DEVENTER,52.257076,6.16096,1,,Europe/Amsterdam,0.0,,,Netherlands
stoparea:18316,dt,DELFT,52.0065394441,4.35651630163,1,,Europe/Amsterdam,0.0,,,Netherlands
stoparea:18317,ashd,AMSTERDAM HOLENDRECHT,52.2982836496,4.95985507965,1,,Europe/Amsterdam,0.0,,,Netherlands
stoparea:18319,dn,DEURNE,51.456223131099996,5.78795492649,1,,Europe/Amsterdam,0.0,,,Netherlands
stoparea:18320,dl,DALFSEN,52.4983345907,6.259669661519999,1,,Europe/Amsterdam,0.0,,,Netherlands
stoparea:18321,db,DRIEBERGEN-ZEIST,52.065156039499996,5.25960534811,1,,Europe/Amsterdam,0.0,,,Netherlands
stoparea:18322,da,DAARLERVEEN,52.4413164272,6.57596647739,1,,Europe/Amsterdam,0.0,,,Netherlands
stoparea:18323,ypb,DEN HAAG YPENBURG,52.0561041559,4.3899782002,1,,Europe/Amsterdam,0.0,,,Netherlands
stoparea:18325,karlsr,KARLSRUHE HBF,48.99357,8.40043,1,,Europe/Amsterdam,0.0,,,Germany
stoparea:18326,hrn,HAREN,53.1752220409,6.61775529385,1,,Europe/Amsterdam,0.0,,,Netherlands
stoparea:18327,hrl,HEERLEN,50.890598689099996,5.97381591797,1,,Europe/Amsterdam,0.0,,,Netherlands
stoparea:18328,gkt,KIJKUIT,51.379801,4.4673300000000005,1,,Europe/Amsterdam,0.0,,,Belgium
stoparea:18329,hrt,HORST-SEVENUM,51.4269723896,6.04165434837,1,,Europe/Amsterdam,0.0,,,Netherlands
stoparea:18331,utlr,UTRECHT LEIDSCHE RIJN,52.09887048109999,5.06512105465,1,,Europe/Amsterdam,0.0,,,Netherlands
stoparea:18332,ndb,NAARDEN-BUSSUM,52.2807649886,5.1570457220099994,1,,Europe/Amsterdam,0.0,,,Netherlands
stoparea:364239,mmlh,MOOK-MOLENHOEK,51.766256330699996,5.87913930416,1,,Europe/Amsterdam,0.0,,,Netherlands
stoparea:109708,nmgo,NIJMEGEN GOFFERT,51.827271142516096,5.822334297012019,1,,Europe/Amsterdam,0.0,,,Netherlands
stoparea:109715,fhs,HASSELT,50.93077555856,5.3270558468099996,1,,Europe/Amsterdam,0.0,,,Belgium
stoparea:218496,wurzb,WURZBURG HBF,49.801553999999996,9.935785000000001,1,,Europe/Amsterdam,0.0,,,Germany
stoparea:218500,nurnb,NURNBERG HBF,49.446389,11.081944,1,,Europe/Amsterdam,0.0,,,Germany
stoparea:377468,egrk,STEINFURT-GROTTENKAMP,52.123295,7.376044,1,,Europe/Amsterdam,0.0,,,Germany
stoparea:189107,utvr,UTRECHT VAARTSCHE RIJN,52.078261796031704,5.12296864885402,1,,Europe/Amsterdam,0.0,,,Netherlands
stoparea:111936,munchh,MUNCHEN HBF,48.140183,11.55841,1,,Europe/Amsterdam,0.0,,,Germany
stoparea:116635,bnz,BARNEVELD ZUID,52.128821,5.60232,1,,Europe/Amsterdam,0.0,,,Netherlands
stoparea:111937,enhf,MUNSTER (W) ZENTRUM NORD,51.984965,7.638560000000001,1,,Europe/Amsterdam,0.0,,,Germany
stoparea:111938,koln,KOLN HBF,50.9430363837,6.958937644960001,1,,Europe/Amsterdam,0.0,,,Germany
stoparea:145404,wuppv,WUPPERTAL-VOHWINKEL,51.233333,7.0722179999999994,1,,Europe/Amsterdam,0.0,,,Germany
stoparea:111941,dussel,DUSSELDORF HBF,51.219947999999995,6.794289999999999,1,,Europe/Amsterdam,0.0,,,Germany
stoparea:111943,munst,MUNSTER (WESTF) HBF,51.956874,7.635839999999999,1,,Europe/Amsterdam,0.0,,,Germany
stoparea:111944,elue,LUNEN HBF,51.616569,7.52953,1,,Europe/Amsterdam,0.0,,,Germany
stoparea:111948,osnh,OSNABRUCK HBF,52.272667,8.06161,1,,Europe/Amsterdam,0.0,,,Germany
stoparea:111949,eldh,LUDINGHAUSEN,51.761815999999996,7.4316699999999996,1,,Europe/Amsterdam,0.0,,,Germany
stoparea:111950,kdul,DULKEN,51.257021,6.3387,1,,Europe/Amsterdam,0.0,,,Germany
stoparea:111952,edulh,DULMEN,51.827940999999996,7.29581,1,,Europe/Amsterdam,0.0,,,Germany
stoparea:111953,worgl,WORGL,47.491721999999996,12.060130000000001,1,,Europe/Amsterdam,0.0,,,Austria
stoparea:153147,fwd,FEANWALDEN,53.235157776099996,5.9895926713900005,1,,Europe/Amsterdam,0.0,,,Netherlands
stoparea:153150,esk,ENSCHEDE KENNISPARK,52.23754084390001,6.838619112969999,1,,Europe/Amsterdam,0.0,,,Netherlands
stoparea:153154,dwe,DE WESTEREEN,53.2487500458,6.03600561619,1,,Europe/Amsterdam,0.0,,,Netherlands
stoparea:153157,ehs,EINDHOVEN STRIJP-S,51.4501458154,5.45702934265,1,,Europe/Amsterdam,0.0,,,Netherlands
stoparea:130827,ndkp,NOORDERKEMPEN,51.35722,4.6329199999999995,1,,Europe/Amsterdam,0.0,,,Belgium
stoparea:194756,zzs,ZAANDIJK ZAANSE SCHANS,52.469161551599996,4.80516135693,1,,Europe/Amsterdam,0.0,,,Netherlands
stoparea:194757,kz,KOOG AAN DE ZAAN,52.457620999999996,4.805914,1,,Europe/Amsterdam,0.0,,,Netherlands
stoparea:194943,wesel,WESEL,51.65578,6.626863,1,,Europe/Amsterdam,0.0,,,Germany
stoparea:194944,oberhs,OBERHAUSEN-STERKRADE,51.512147999999996,6.84323,1,,Europe/Amsterdam,0.0,,,Germany
stoparea:264884,wadt,WADDINXVEEN TRIANGEL,52.02678,4.64907,1,,Europe/Amsterdam,0.0,,,Netherlands
stoparea:226113,mid,HEIDE (B),51.3648946937,4.46022391319,1,,Europe/Amsterdam,0.0,,,Belgium
stoparea:226114,hwob,WOLFSBURG HBF,52.429479,10.7882,1,,Europe/Amsterdam,0.0,,,Germany
stoparea:226115,esn,ESSEN (B),51.4626906725,4.45137798786,1,,Europe/Amsterdam,0.0,,,Belgium
stoparea:226117,eenp,ENNEPETAL,51.304434,7.3432,1,,Europe/Amsterdam,0.0,,,Germany
stoparea:226121,kkd,KOLN MESSE/DEUTZ,50.940906,6.9746,1,,Europe/Amsterdam,0.0,,,Germany
stoparea:226123,minden,MINDEN (WESTF),52.290439007299995,8.9344650507,1,,Europe/Amsterdam,0.0,,,Germany
stoparea:342178,el,ELTEN,51.8743477,6.154146900000001,1,,Europe/Amsterdam,0.0,,,Germany
